{"type":"FeatureCollection","metadata":{"generated":"02-04-2024 13:42:37","url":"https:\/\/movai.no","title":"CityBike Stations","status":200,"message":"OK","total":430,"total_city_bikes":1872},"updatedAt":"02-04-2024 13:42:37","features":[{"type":"Feature","geometry":{"type":"Point","coordinates":[10.807177606311825,59.91606483663281]},"properties":{"id":"YOS:Station:4683","operator":"oslobysykkel","name":"Valle Vision","lat":59.91606483663281,"lon":10.807177606311825,"capacity":21,"is_installed":1,"is_renting":1,"is_returning":1,"num_bikes_available":9,"num_docks_available":12,"last_reported":1712065300}},{"type":"Feature","geometry":{"type":"Point","coordinates":[10.813758421127346,59.912716333310414]},"properties":{"id":"YOS:Station:4552","operator":"oslobysykkel","name":"Bryn Brannstasjon","lat":59.912716333310414,"lon":10.813758421127346,"capacity":18,"is_installed":1,"is_renting":1,"is_returning":1,"num_bikes_available":6,"num_docks_available":12,"last_reported":1712065300}},{"type":"Feature","geometry":{"type":"Point","coordinates":[10.73190903696522,59.936006155097004]},"properties":{"id":"YOS:Station:3725","operator":"oslobysykkel","name":"Vestre Aker Kirke","lat":59.936006155097004,"lon":10.73190903696522,"capacity":19,"is_installed":1,"is_renting":1,"is_returning":1,"num_bikes_available":0,"num_docks_available":19,"last_reported":1712065300}},{"type":"Feature","geometry":{"type":"Point","coordinates":[10.729828757277915,59.91087115068967]},"properties":{"id":"YOS:Station:2358","operator":"oslobysykkel","name":"Aker Brygge 3 mot Fergene","lat":59.91087115068967,"lon":10.729828757277915,"capacity":14,"is_installed":1,"is_renting":1,"is_returning":1,"num_bikes_available":6,"num_docks_available":7,"last_reported":1712065300}},{"type":"Feature","geometry":{"type":"Point","coordinates":[10.730396895054923,59.91111544486938]},"properties":{"id":"YOS:Station:2357","operator":"oslobysykkel","name":"Aker Brygge 2 mot R\u00e5dhusplassen","lat":59.91111544486938,"lon":10.730396895054923,"capacity":24,"is_installed":1,"is_renting":1,"is_returning":1,"num_bikes_available":6,"num_docks_available":16,"last_reported":1712065300}},{"type":"Feature","geometry":{"type":"Point","coordinates":[10.727852791011173,59.95208441268443]},"properties":{"id":"YOS:Station:2351","operator":"oslobysykkel","name":"Sogn Studentby","lat":59.95208441268443,"lon":10.727852791011173,"capacity":18,"is_installed":1,"is_renting":1,"is_returning":1,"num_bikes_available":2,"num_docks_available":16,"last_reported":1712065300}},{"type":"Feature","geometry":{"type":"Point","coordinates":[10.716723884520064,59.94025210701875]},"properties":{"id":"YOS:Station:2350","operator":"oslobysykkel","name":"Blindern T-Bane","lat":59.94025210701875,"lon":10.716723884520064,"capacity":25,"is_installed":1,"is_renting":1,"is_returning":1,"num_bikes_available":3,"num_docks_available":22,"last_reported":1712065300}},{"type":"Feature","geometry":{"type":"Point","coordinates":[10.698048967006343,59.902942924651484]},"properties":{"id":"YOS:Station:2349","operator":"oslobysykkel","name":"Maritimt Museum","lat":59.902942924651484,"lon":10.698048967006343,"capacity":21,"is_installed":1,"is_renting":1,"is_returning":1,"num_bikes_available":4,"num_docks_available":17,"last_reported":1712065300}},{"type":"Feature","geometry":{"type":"Point","coordinates":[10.674398461025874,59.89843428245928]},"properties":{"id":"YOS:Station:2347","operator":"oslobysykkel","name":"Huk 2","lat":59.89843428245928,"lon":10.674398461025874,"capacity":30,"is_installed":1,"is_renting":1,"is_returning":1,"num_bikes_available":8,"num_docks_available":22,"last_reported":1712065300}},{"type":"Feature","geometry":{"type":"Point","coordinates":[10.793540704010042,59.92024767905539]},"properties":{"id":"YOS:Station:2340","operator":"oslobysykkel","name":"Tiedemannsparken","lat":59.92024767905539,"lon":10.793540704010042,"capacity":25,"is_installed":1,"is_renting":1,"is_returning":1,"num_bikes_available":0,"num_docks_available":25,"last_reported":1712065300}},{"type":"Feature","geometry":{"type":"Point","coordinates":[10.761724502548105,59.91564920880896]},"properties":{"id":"YOS:Station:2339","operator":"oslobysykkel","name":"Elgsletta","lat":59.91564920880896,"lon":10.761724502548105,"capacity":30,"is_installed":1,"is_renting":1,"is_returning":1,"num_bikes_available":0,"num_docks_available":27,"last_reported":1712065300}},{"type":"Feature","geometry":{"type":"Point","coordinates":[10.737834990277321,59.91591543378553]},"properties":{"id":"YOS:Station:2337","operator":"oslobysykkel","name":"Universitetsgata","lat":59.91591543378553,"lon":10.737834990277321,"capacity":15,"is_installed":1,"is_renting":1,"is_returning":1,"num_bikes_available":10,"num_docks_available":5,"last_reported":1712065300}},{"type":"Feature","geometry":{"type":"Point","coordinates":[10.757428972017067,59.916544926082935]},"properties":{"id":"YOS:Station:2334","operator":"oslobysykkel","name":"Nybrua holdeplass","lat":59.916544926082935,"lon":10.757428972017067,"capacity":12,"is_installed":1,"is_renting":1,"is_returning":1,"num_bikes_available":0,"num_docks_available":12,"last_reported":1712065300}},{"type":"Feature","geometry":{"type":"Point","coordinates":[10.754884663589621,59.90725889890288]},"properties":{"id":"YOS:Station:2333","operator":"oslobysykkel","name":"Akerselvallmenningen","lat":59.90725889890288,"lon":10.754884663589621,"capacity":15,"is_installed":1,"is_renting":1,"is_returning":1,"num_bikes_available":9,"num_docks_available":6,"last_reported":1712065300}},{"type":"Feature","geometry":{"type":"Point","coordinates":[10.757376666842816,59.91629601075576]},"properties":{"id":"YOS:Station:2332","operator":"oslobysykkel","name":"Krohgst\u00f8tten hospital","lat":59.91629601075576,"lon":10.757376666842816,"capacity":12,"is_installed":1,"is_renting":1,"is_returning":1,"num_bikes_available":0,"num_docks_available":12,"last_reported":1712065300}},{"type":"Feature","geometry":{"type":"Point","coordinates":[10.749958763650312,59.91323316606503]},"properties":{"id":"YOS:Station:2330","operator":"oslobysykkel","name":"Stjerneplassen","lat":59.91323316606503,"lon":10.749958763650312,"capacity":15,"is_installed":1,"is_renting":1,"is_returning":1,"num_bikes_available":12,"num_docks_available":2,"last_reported":1712065300}},{"type":"Feature","geometry":{"type":"Point","coordinates":[10.727170827087008,59.91271286014364]},"properties":{"id":"YOS:Station:2329","operator":"oslobysykkel","name":"Via Vika","lat":59.91271286014364,"lon":10.727170827087008,"capacity":15,"is_installed":1,"is_renting":1,"is_returning":1,"num_bikes_available":6,"num_docks_available":8,"last_reported":1712065300}},{"type":"Feature","geometry":{"type":"Point","coordinates":[10.760311802881915,59.90691970255054]},"properties":{"id":"YOS:Station:2315","operator":"oslobysykkel","name":"Rostockgata","lat":59.90691970255054,"lon":10.760311802881915,"capacity":18,"is_installed":1,"is_renting":1,"is_returning":1,"num_bikes_available":13,"num_docks_available":2,"last_reported":1712065300}},{"type":"Feature","geometry":{"type":"Point","coordinates":[10.753398500006654,59.91459878869395]},"properties":{"id":"YOS:Station:2308","operator":"oslobysykkel","name":"Gunerius","lat":59.91459878869395,"lon":10.753398500006654,"capacity":12,"is_installed":1,"is_renting":1,"is_returning":1,"num_bikes_available":8,"num_docks_available":4,"last_reported":1712065300}},{"type":"Feature","geometry":{"type":"Point","coordinates":[10.724626314653563,59.946219381760216]},"properties":{"id":"YOS:Station:2307","operator":"oslobysykkel","name":"Domus Athletica","lat":59.946219381760216,"lon":10.724626314653563,"capacity":30,"is_installed":1,"is_renting":1,"is_returning":1,"num_bikes_available":9,"num_docks_available":20,"last_reported":1712065300}},{"type":"Feature","geometry":{"type":"Point","coordinates":[10.80193969590286,59.930903961728745]},"properties":{"id":"YOS:Station:2306","operator":"oslobysykkel","name":"\u00d8kern Portal","lat":59.930903961728745,"lon":10.80193969590286,"capacity":18,"is_installed":1,"is_renting":1,"is_returning":1,"num_bikes_available":9,"num_docks_available":9,"last_reported":1712065300}},{"type":"Feature","geometry":{"type":"Point","coordinates":[10.761256419316368,59.927777943193746]},"properties":{"id":"YOS:Station:2305","operator":"oslobysykkel","name":"Hesselbergs Gate","lat":59.927777943193746,"lon":10.761256419316368,"capacity":15,"is_installed":1,"is_renting":1,"is_returning":1,"num_bikes_available":1,"num_docks_available":12,"last_reported":1712065300}},{"type":"Feature","geometry":{"type":"Point","coordinates":[10.783884345957915,59.91178403655783]},"properties":{"id":"YOS:Station:2304","operator":"oslobysykkel","name":"Hedmarksgata","lat":59.91178403655783,"lon":10.783884345957915,"capacity":18,"is_installed":1,"is_renting":1,"is_returning":1,"num_bikes_available":1,"num_docks_available":16,"last_reported":1712065300}},{"type":"Feature","geometry":{"type":"Point","coordinates":[10.732281291700133,59.913150534075015]},"properties":{"id":"YOS:Station:2280","operator":"oslobysykkel","name":"Klingenberggata","lat":59.913150534075015,"lon":10.732281291700133,"capacity":15,"is_installed":1,"is_renting":1,"is_returning":1,"num_bikes_available":11,"num_docks_available":4,"last_reported":1712065300}},{"type":"Feature","geometry":{"type":"Point","coordinates":[10.799914801820819,59.928710966693274]},"properties":{"id":"YOS:Station:2270","operator":"oslobysykkel","name":"L\u00f8renporten","lat":59.928710966693274,"lon":10.799914801820819,"capacity":20,"is_installed":1,"is_renting":1,"is_returning":1,"num_bikes_available":9,"num_docks_available":11,"last_reported":1712065300}},{"type":"Feature","geometry":{"type":"Point","coordinates":[10.778592132296495,59.90591083488326]},"properties":{"id":"YOS:Station:1919","operator":"oslobysykkel","name":"Kv\u00e6rnerveien","lat":59.90591083488326,"lon":10.778592132296495,"capacity":6,"is_installed":1,"is_renting":1,"is_returning":1,"num_bikes_available":1,"num_docks_available":5,"last_reported":1712065300}},{"type":"Feature","geometry":{"type":"Point","coordinates":[10.730034556850455,59.91118372188379]},"properties":{"id":"YOS:Station:1755","operator":"oslobysykkel","name":"Aker Brygge 1 mot Nasjonalmuseet","lat":59.91118372188379,"lon":10.730034556850455,"capacity":33,"is_installed":1,"is_renting":1,"is_returning":1,"num_bikes_available":31,"num_docks_available":1,"last_reported":1712065300}},{"type":"Feature","geometry":{"type":"Point","coordinates":[10.737365277561025,59.91065301806209]},"properties":{"id":"YOS:Station:1101","operator":"oslobysykkel","name":"Stortingstunellen","lat":59.91065301806209,"lon":10.737365277561025,"capacity":24,"is_installed":1,"is_renting":1,"is_returning":1,"num_bikes_available":15,"num_docks_available":8,"last_reported":1712065300}},{"type":"Feature","geometry":{"type":"Point","coordinates":[10.740971,59.9147672]},"properties":{"id":"YOS:Station:1023","operator":"oslobysykkel","name":"Professor Aschehougs plass","lat":59.9147672,"lon":10.740971,"capacity":15,"is_installed":1,"is_renting":1,"is_returning":1,"num_bikes_available":14,"num_docks_available":1,"last_reported":1712065300}},{"type":"Feature","geometry":{"type":"Point","coordinates":[10.703833031254021,59.942742106473666]},"properties":{"id":"YOS:Station:1009","operator":"oslobysykkel","name":"Borgenveien","lat":59.942742106473666,"lon":10.703833031254021,"capacity":10,"is_installed":1,"is_renting":1,"is_returning":1,"num_bikes_available":0,"num_docks_available":10,"last_reported":1712065300}},{"type":"Feature","geometry":{"type":"Point","coordinates":[10.767579386407874,59.91320242563816]},"properties":{"id":"YOS:Station:970","operator":"oslobysykkel","name":"Enerhaugen","lat":59.91320242563816,"lon":10.767579386407874,"capacity":25,"is_installed":1,"is_renting":1,"is_returning":1,"num_bikes_available":1,"num_docks_available":24,"last_reported":1712065300}},{"type":"Feature","geometry":{"type":"Point","coordinates":[10.743456971511705,59.91015615055511]},"properties":{"id":"YOS:Station:787","operator":"oslobysykkel","name":"Kirkegata 15","lat":59.91015615055511,"lon":10.743456971511705,"capacity":12,"is_installed":1,"is_renting":1,"is_returning":1,"num_bikes_available":10,"num_docks_available":2,"last_reported":1712065300}},{"type":"Feature","geometry":{"type":"Point","coordinates":[10.67862514536896,59.922723981014094]},"properties":{"id":"YOS:Station:627","operator":"oslobysykkel","name":"Sk\u00f8yen Stasjon","lat":59.922723981014094,"lon":10.67862514536896,"capacity":30,"is_installed":1,"is_renting":1,"is_returning":1,"num_bikes_available":2,"num_docks_available":18,"last_reported":1712065300}},{"type":"Feature","geometry":{"type":"Point","coordinates":[10.7312715,59.9150596]},"properties":{"id":"YOS:Station:623","operator":"oslobysykkel","name":"7. juni-plassen","lat":59.9150596,"lon":10.7312715,"capacity":21,"is_installed":1,"is_renting":1,"is_returning":1,"num_bikes_available":19,"num_docks_available":1,"last_reported":1712065300}},{"type":"Feature","geometry":{"type":"Point","coordinates":[10.767546377298158,59.9287502718149]},"properties":{"id":"YOS:Station:624","operator":"oslobysykkel","name":"D\u00e6lenenggata","lat":59.9287502718149,"lon":10.767546377298158,"capacity":20,"is_installed":1,"is_renting":1,"is_returning":1,"num_bikes_available":0,"num_docks_available":20,"last_reported":1712065300}},{"type":"Feature","geometry":{"type":"Point","coordinates":[10.780603250331886,59.938863086921295]},"properties":{"id":"YOS:Station:614","operator":"oslobysykkel","name":"Sinsen T-bane","lat":59.938863086921295,"lon":10.780603250331886,"capacity":24,"is_installed":1,"is_renting":1,"is_returning":1,"num_bikes_available":1,"num_docks_available":23,"last_reported":1712065300}},{"type":"Feature","geometry":{"type":"Point","coordinates":[10.746530272588245,59.906922167198275]},"properties":{"id":"YOS:Station:616","operator":"oslobysykkel","name":"Salt","lat":59.906922167198275,"lon":10.746530272588245,"capacity":15,"is_installed":1,"is_renting":1,"is_returning":1,"num_bikes_available":13,"num_docks_available":0,"last_reported":1712065300}},{"type":"Feature","geometry":{"type":"Point","coordinates":[10.723715245368956,59.94247260310697]},"properties":{"id":"YOS:Station:618","operator":"oslobysykkel","name":"Bak Niels Treschows hus s\u00f8r","lat":59.94247260310697,"lon":10.723715245368956,"capacity":42,"is_installed":1,"is_renting":1,"is_returning":1,"num_bikes_available":0,"num_docks_available":41,"last_reported":1712065300}},{"type":"Feature","geometry":{"type":"Point","coordinates":[10.777633472422016,59.93285662158759]},"properties":{"id":"YOS:Station:621","operator":"oslobysykkel","name":"Torshovdalen \u00f8st","lat":59.93285662158759,"lon":10.777633472422016,"capacity":27,"is_installed":1,"is_renting":1,"is_returning":1,"num_bikes_available":0,"num_docks_available":27,"last_reported":1712065300}},{"type":"Feature","geometry":{"type":"Point","coordinates":[10.7313627,59.9238826]},"properties":{"id":"YOS:Station:622","operator":"oslobysykkel","name":"Pilestredet 63","lat":59.9238826,"lon":10.7313627,"capacity":30,"is_installed":1,"is_renting":1,"is_returning":1,"num_bikes_available":0,"num_docks_available":30,"last_reported":1712065300}},{"type":"Feature","geometry":{"type":"Point","coordinates":[10.714055629614734,59.92095635370271]},"properties":{"id":"YOS:Station:613","operator":"oslobysykkel","name":"Schives gate","lat":59.92095635370271,"lon":10.714055629614734,"capacity":27,"is_installed":1,"is_renting":1,"is_returning":1,"num_bikes_available":0,"num_docks_available":26,"last_reported":1712065300}},{"type":"Feature","geometry":{"type":"Point","coordinates":[10.734712874574,59.92377440938114]},"properties":{"id":"YOS:Station:620","operator":"oslobysykkel","name":"Bislettgata","lat":59.92377440938114,"lon":10.734712874574,"capacity":40,"is_installed":1,"is_renting":1,"is_returning":1,"num_bikes_available":1,"num_docks_available":39,"last_reported":1712065300}},{"type":"Feature","geometry":{"type":"Point","coordinates":[10.736036647971048,59.931020132184614]},"properties":{"id":"YOS:Station:596","operator":"oslobysykkel","name":"Idioten","lat":59.931020132184614,"lon":10.736036647971048,"capacity":18,"is_installed":1,"is_renting":1,"is_returning":1,"num_bikes_available":0,"num_docks_available":18,"last_reported":1712065300}},{"type":"Feature","geometry":{"type":"Point","coordinates":[10.749754560118863,59.92716771401357]},"properties":{"id":"YOS:Station:617","operator":"oslobysykkel","name":"Bjerregaardsgate \u00d8st","lat":59.92716771401357,"lon":10.749754560118863,"capacity":21,"is_installed":1,"is_renting":1,"is_returning":1,"num_bikes_available":0,"num_docks_available":21,"last_reported":1712065300}},{"type":"Feature","geometry":{"type":"Point","coordinates":[10.758594919923468,59.93277225626508]},"properties":{"id":"YOS:Station:607","operator":"oslobysykkel","name":"Marcus Thranes gate","lat":59.93277225626508,"lon":10.758594919923468,"capacity":30,"is_installed":1,"is_renting":1,"is_returning":1,"num_bikes_available":1,"num_docks_available":28,"last_reported":1712065300}},{"type":"Feature","geometry":{"type":"Point","coordinates":[10.7045406,59.9225392]},"properties":{"id":"YOS:Station:603","operator":"oslobysykkel","name":"Frogner plass","lat":59.9225392,"lon":10.7045406,"capacity":18,"is_installed":1,"is_renting":1,"is_returning":1,"num_bikes_available":0,"num_docks_available":17,"last_reported":1712065300}},{"type":"Feature","geometry":{"type":"Point","coordinates":[10.7136816,59.9294351]},"properties":{"id":"YOS:Station:590","operator":"oslobysykkel","name":"Majorstua skole","lat":59.9294351,"lon":10.7136816,"capacity":40,"is_installed":1,"is_renting":1,"is_returning":1,"num_bikes_available":0,"num_docks_available":40,"last_reported":1712065300}},{"type":"Feature","geometry":{"type":"Point","coordinates":[10.7914482,59.9099822]},"properties":{"id":"YOS:Station:610","operator":"oslobysykkel","name":"Sotahj\u00f8rnet","lat":59.9099822,"lon":10.7914482,"capacity":20,"is_installed":1,"is_renting":1,"is_returning":1,"num_bikes_available":0,"num_docks_available":19,"last_reported":1712065300}},{"type":"Feature","geometry":{"type":"Point","coordinates":[10.746273349149249,59.93068679863987]},"properties":{"id":"YOS:Station:608","operator":"oslobysykkel","name":"Colletts gate","lat":59.93068679863987,"lon":10.746273349149249,"capacity":21,"is_installed":1,"is_renting":1,"is_returning":1,"num_bikes_available":0,"num_docks_available":21,"last_reported":1712065300}},{"type":"Feature","geometry":{"type":"Point","coordinates":[10.768771317790996,59.9392403070359]},"properties":{"id":"YOS:Station:593","operator":"oslobysykkel","name":"Bj\u00f8lsen m\u00f8lle","lat":59.9392403070359,"lon":10.768771317790996,"capacity":30,"is_installed":1,"is_renting":1,"is_returning":1,"num_bikes_available":0,"num_docks_available":29,"last_reported":1712065300}},{"type":"Feature","geometry":{"type":"Point","coordinates":[10.7343051,59.9193095]},"properties":{"id":"YOS:Station:530","operator":"oslobysykkel","name":"Holbergs plass","lat":59.9193095,"lon":10.7343051,"capacity":10,"is_installed":1,"is_renting":1,"is_returning":1,"num_bikes_available":3,"num_docks_available":6,"last_reported":1712065300}},{"type":"Feature","geometry":{"type":"Point","coordinates":[10.7594857,59.9207284]},"properties":{"id":"YOS:Station:463","operator":"oslobysykkel","name":"Schous plass trikkestopp","lat":59.9207284,"lon":10.7594857,"capacity":20,"is_installed":1,"is_renting":1,"is_returning":1,"num_bikes_available":0,"num_docks_available":18,"last_reported":1712065300}},{"type":"Feature","geometry":{"type":"Point","coordinates":[10.7598719,59.9146509]},"properties":{"id":"YOS:Station:475","operator":"oslobysykkel","name":"Hausmanns bru","lat":59.9146509,"lon":10.7598719,"capacity":24,"is_installed":1,"is_renting":1,"is_returning":1,"num_bikes_available":6,"num_docks_available":18,"last_reported":1712065300}},{"type":"Feature","geometry":{"type":"Point","coordinates":[10.7689579,59.905323]},"properties":{"id":"YOS:Station:600","operator":"oslobysykkel","name":"Dyvekes bru","lat":59.905323,"lon":10.7689579,"capacity":12,"is_installed":1,"is_renting":1,"is_returning":1,"num_bikes_available":2,"num_docks_available":9,"last_reported":1712065300}},{"type":"Feature","geometry":{"type":"Point","coordinates":[10.7622135,59.9172088]},"properties":{"id":"YOS:Station:440","operator":"oslobysykkel","name":"Lakkegata","lat":59.9172088,"lon":10.7622135,"capacity":18,"is_installed":1,"is_renting":1,"is_returning":1,"num_bikes_available":1,"num_docks_available":17,"last_reported":1712065300}},{"type":"Feature","geometry":{"type":"Point","coordinates":[10.783309055819714,59.91662195885618]},"properties":{"id":"YOS:Station:612","operator":"oslobysykkel","name":"Ensj\u00f8veien","lat":59.91662195885618,"lon":10.783309055819714,"capacity":19,"is_installed":1,"is_renting":1,"is_returning":1,"num_bikes_available":15,"num_docks_available":4,"last_reported":1712065300}},{"type":"Feature","geometry":{"type":"Point","coordinates":[10.75729364846211,59.91366109486603]},"properties":{"id":"YOS:Station:491","operator":"oslobysykkel","name":"Brugata","lat":59.91366109486603,"lon":10.75729364846211,"capacity":18,"is_installed":1,"is_renting":1,"is_returning":1,"num_bikes_available":9,"num_docks_available":8,"last_reported":1712065300}},{"type":"Feature","geometry":{"type":"Point","coordinates":[10.7615858,59.9243639]},"properties":{"id":"YOS:Station:493","operator":"oslobysykkel","name":"Sofienbergparken nordvest","lat":59.9243639,"lon":10.7615858,"capacity":30,"is_installed":1,"is_renting":1,"is_returning":1,"num_bikes_available":1,"num_docks_available":28,"last_reported":1712065300}},{"type":"Feature","geometry":{"type":"Point","coordinates":[10.7496755,59.929005]},"properties":{"id":"YOS:Station:410","operator":"oslobysykkel","name":"Landstads gate","lat":59.929005,"lon":10.7496755,"capacity":27,"is_installed":1,"is_renting":1,"is_returning":1,"num_bikes_available":1,"num_docks_available":25,"last_reported":1712065300}},{"type":"Feature","geometry":{"type":"Point","coordinates":[10.779880090762617,59.917023632719406]},"properties":{"id":"YOS:Station:605","operator":"oslobysykkel","name":"\u00d8kernveien","lat":59.917023632719406,"lon":10.779880090762617,"capacity":18,"is_installed":1,"is_renting":1,"is_returning":1,"num_bikes_available":0,"num_docks_available":17,"last_reported":1712065300}},{"type":"Feature","geometry":{"type":"Point","coordinates":[10.716349,59.9163309]},"properties":{"id":"YOS:Station:388","operator":"oslobysykkel","name":"Skovveien","lat":59.9163309,"lon":10.716349,"capacity":18,"is_installed":1,"is_renting":1,"is_returning":1,"num_bikes_available":0,"num_docks_available":18,"last_reported":1712065300}},{"type":"Feature","geometry":{"type":"Point","coordinates":[10.781726510450724,59.92464487862039]},"properties":{"id":"YOS:Station:591","operator":"oslobysykkel","name":"Grenseveien","lat":59.92464487862039,"lon":10.781726510450724,"capacity":24,"is_installed":1,"is_renting":1,"is_returning":1,"num_bikes_available":16,"num_docks_available":8,"last_reported":1712065300}},{"type":"Feature","geometry":{"type":"Point","coordinates":[10.760323881579982,59.94558091179507]},"properties":{"id":"YOS:Station:592","operator":"oslobysykkel","name":"Badebakken","lat":59.94558091179507,"lon":10.760323881579982,"capacity":18,"is_installed":1,"is_renting":1,"is_returning":1,"num_bikes_available":1,"num_docks_available":17,"last_reported":1712065300}},{"type":"Feature","geometry":{"type":"Point","coordinates":[10.7728203,59.9309181]},"properties":{"id":"YOS:Station:565","operator":"oslobysykkel","name":"Mailundveien","lat":59.9309181,"lon":10.7728203,"capacity":18,"is_installed":1,"is_renting":1,"is_returning":1,"num_bikes_available":0,"num_docks_available":18,"last_reported":1712065300}},{"type":"Feature","geometry":{"type":"Point","coordinates":[10.7407129,59.9101207]},"properties":{"id":"YOS:Station:571","operator":"oslobysykkel","name":"Over R\u00e5dhusgata","lat":59.9101207,"lon":10.7407129,"capacity":21,"is_installed":1,"is_renting":1,"is_returning":1,"num_bikes_available":6,"num_docks_available":14,"last_reported":1712065300}},{"type":"Feature","geometry":{"type":"Point","coordinates":[10.7128796,59.9170851]},"properties":{"id":"YOS:Station:568","operator":"oslobysykkel","name":"Frognerveien","lat":59.9170851,"lon":10.7128796,"capacity":15,"is_installed":1,"is_renting":1,"is_returning":1,"num_bikes_available":0,"num_docks_available":15,"last_reported":1712065300}},{"type":"Feature","geometry":{"type":"Point","coordinates":[10.7184345,59.9180141]},"properties":{"id":"YOS:Station:588","operator":"oslobysykkel","name":"Meltzers gate","lat":59.9180141,"lon":10.7184345,"capacity":21,"is_installed":1,"is_renting":1,"is_returning":1,"num_bikes_available":0,"num_docks_available":21,"last_reported":1712065300}},{"type":"Feature","geometry":{"type":"Point","coordinates":[10.7207894,59.9268942]},"properties":{"id":"YOS:Station:584","operator":"oslobysykkel","name":"Henrik Wergelands all\u00e9","lat":59.9268942,"lon":10.7207894,"capacity":35,"is_installed":1,"is_renting":1,"is_returning":1,"num_bikes_available":0,"num_docks_available":34,"last_reported":1712065300}},{"type":"Feature","geometry":{"type":"Point","coordinates":[10.766373769557958,59.91783548782385]},"properties":{"id":"YOS:Station:569","operator":"oslobysykkel","name":"Botanisk hage s\u00f8r-vest","lat":59.91783548782385,"lon":10.766373769557958,"capacity":30,"is_installed":1,"is_renting":1,"is_returning":1,"num_bikes_available":2,"num_docks_available":28,"last_reported":1712065300}},{"type":"Feature","geometry":{"type":"Point","coordinates":[10.7272388,59.9224222]},"properties":{"id":"YOS:Station:564","operator":"oslobysykkel","name":"Oscars gate","lat":59.9224222,"lon":10.7272388,"capacity":30,"is_installed":1,"is_renting":1,"is_returning":1,"num_bikes_available":0,"num_docks_available":30,"last_reported":1712065300}},{"type":"Feature","geometry":{"type":"Point","coordinates":[10.7096985,59.9347352]},"properties":{"id":"YOS:Station:570","operator":"oslobysykkel","name":"Fr\u00f8en T-bane","lat":59.9347352,"lon":10.7096985,"capacity":15,"is_installed":1,"is_renting":1,"is_returning":1,"num_bikes_available":0,"num_docks_available":15,"last_reported":1712065300}},{"type":"Feature","geometry":{"type":"Point","coordinates":[10.679579749668129,59.92226850808104]},"properties":{"id":"YOS:Station:572","operator":"oslobysykkel","name":"Sk\u00f8yen","lat":59.92226850808104,"lon":10.679579749668129,"capacity":40,"is_installed":1,"is_renting":1,"is_returning":1,"num_bikes_available":10,"num_docks_available":29,"last_reported":1712065300}},{"type":"Feature","geometry":{"type":"Point","coordinates":[10.769121495700826,59.9294565845173]},"properties":{"id":"YOS:Station:586","operator":"oslobysykkel","name":"K\u00f8benhavngata busstopp","lat":59.9294565845173,"lon":10.769121495700826,"capacity":27,"is_installed":1,"is_renting":1,"is_returning":1,"num_bikes_available":0,"num_docks_available":27,"last_reported":1712065300}},{"type":"Feature","geometry":{"type":"Point","coordinates":[10.675499599893328,59.92732814272898]},"properties":{"id":"YOS:Station:566","operator":"oslobysykkel","name":"Hoff terrasse holdeplass","lat":59.92732814272898,"lon":10.675499599893328,"capacity":24,"is_installed":1,"is_renting":1,"is_returning":1,"num_bikes_available":0,"num_docks_available":24,"last_reported":1712065300}},{"type":"Feature","geometry":{"type":"Point","coordinates":[10.6757833,59.9304645]},"properties":{"id":"YOS:Station:602","operator":"oslobysykkel","name":"Jarlsborgveien","lat":59.9304645,"lon":10.6757833,"capacity":18,"is_installed":1,"is_renting":1,"is_returning":1,"num_bikes_available":0,"num_docks_available":18,"last_reported":1712065300}},{"type":"Feature","geometry":{"type":"Point","coordinates":[10.732569703704815,59.94743324225673]},"properties":{"id":"YOS:Station:575","operator":"oslobysykkel","name":"Sognsveien","lat":59.94743324225673,"lon":10.732569703704815,"capacity":30,"is_installed":1,"is_renting":1,"is_returning":1,"num_bikes_available":10,"num_docks_available":19,"last_reported":1712065300}},{"type":"Feature","geometry":{"type":"Point","coordinates":[10.713867957672134,59.945450633702556]},"properties":{"id":"YOS:Station:567","operator":"oslobysykkel","name":"Forskningsveien","lat":59.945450633702556,"lon":10.713867957672134,"capacity":39,"is_installed":1,"is_renting":1,"is_returning":1,"num_bikes_available":2,"num_docks_available":37,"last_reported":1712065300}},{"type":"Feature","geometry":{"type":"Point","coordinates":[10.750775120272449,59.94114763297182]},"properties":{"id":"YOS:Station:582","operator":"oslobysykkel","name":"Stavangergata","lat":59.94114763297182,"lon":10.750775120272449,"capacity":30,"is_installed":1,"is_renting":1,"is_returning":1,"num_bikes_available":0,"num_docks_available":30,"last_reported":1712065300}},{"type":"Feature","geometry":{"type":"Point","coordinates":[10.7554274,59.9224256]},"properties":{"id":"YOS:Station:542","operator":"oslobysykkel","name":"Gr\u00fcnerhagen Nord","lat":59.9224256,"lon":10.7554274,"capacity":20,"is_installed":1,"is_renting":1,"is_returning":1,"num_bikes_available":2,"num_docks_available":18,"last_reported":1712065300}},{"type":"Feature","geometry":{"type":"Point","coordinates":[10.7229003,59.9126844]},"properties":{"id":"YOS:Station:563","operator":"oslobysykkel","name":"Huitfeldts gate","lat":59.9126844,"lon":10.7229003,"capacity":18,"is_installed":1,"is_renting":1,"is_returning":1,"num_bikes_available":0,"num_docks_available":18,"last_reported":1712065300}},{"type":"Feature","geometry":{"type":"Point","coordinates":[10.7277001,59.910974]},"properties":{"id":"YOS:Station:558","operator":"oslobysykkel","name":"Dokkveien","lat":59.910974,"lon":10.7277001,"capacity":15,"is_installed":1,"is_renting":1,"is_returning":1,"num_bikes_available":4,"num_docks_available":11,"last_reported":1712065300}},{"type":"Feature","geometry":{"type":"Point","coordinates":[10.7625700380287,59.908004655328924]},"properties":{"id":"YOS:Station:552","operator":"oslobysykkel","name":"Trelastgata","lat":59.908004655328924,"lon":10.7625700380287,"capacity":18,"is_installed":1,"is_renting":1,"is_returning":1,"num_bikes_available":2,"num_docks_available":15,"last_reported":1712065300}},{"type":"Feature","geometry":{"type":"Point","coordinates":[10.7519299,59.9337026]},"properties":{"id":"YOS:Station:555","operator":"oslobysykkel","name":"Griffenfeldts gate","lat":59.9337026,"lon":10.7519299,"capacity":15,"is_installed":1,"is_renting":1,"is_returning":1,"num_bikes_available":0,"num_docks_available":15,"last_reported":1712065300}},{"type":"Feature","geometry":{"type":"Point","coordinates":[10.735113005880237,59.911776299209265]},"properties":{"id":"YOS:Station:573","operator":"oslobysykkel","name":"Tordenskiolds gate","lat":59.911776299209265,"lon":10.735113005880237,"capacity":24,"is_installed":1,"is_renting":1,"is_returning":1,"num_bikes_available":8,"num_docks_available":16,"last_reported":1712065300}},{"type":"Feature","geometry":{"type":"Point","coordinates":[10.726294394131088,59.93347989334691]},"properties":{"id":"YOS:Station:561","operator":"oslobysykkel","name":"Kirkeveien","lat":59.93347989334691,"lon":10.726294394131088,"capacity":24,"is_installed":1,"is_renting":1,"is_returning":1,"num_bikes_available":0,"num_docks_available":24,"last_reported":1712065300}},{"type":"Feature","geometry":{"type":"Point","coordinates":[10.7301061,59.9135227]},"properties":{"id":"YOS:Station:615","operator":"oslobysykkel","name":"Munkedamsveien","lat":59.9135227,"lon":10.7301061,"capacity":21,"is_installed":1,"is_renting":1,"is_returning":1,"num_bikes_available":6,"num_docks_available":14,"last_reported":1712065300}},{"type":"Feature","geometry":{"type":"Point","coordinates":[10.798093360118871,59.91381587564694]},"properties":{"id":"YOS:Station:543","operator":"oslobysykkel","name":"Fyrstikktorget","lat":59.91381587564694,"lon":10.798093360118871,"capacity":20,"is_installed":1,"is_renting":1,"is_returning":1,"num_bikes_available":6,"num_docks_available":11,"last_reported":1712065300}},{"type":"Feature","geometry":{"type":"Point","coordinates":[10.751165,59.952659]},"properties":{"id":"YOS:Station:554","operator":"oslobysykkel","name":"T\u00e5sen Senter","lat":59.952659,"lon":10.751165,"capacity":21,"is_installed":1,"is_renting":1,"is_returning":1,"num_bikes_available":0,"num_docks_available":21,"last_reported":1712065300}},{"type":"Feature","geometry":{"type":"Point","coordinates":[10.7609998,59.9107393]},"properties":{"id":"YOS:Station:574","operator":"oslobysykkel","name":"Annette Thommessens Plass","lat":59.9107393,"lon":10.7609998,"capacity":12,"is_installed":1,"is_renting":1,"is_returning":1,"num_bikes_available":7,"num_docks_available":4,"last_reported":1712065300}},{"type":"Feature","geometry":{"type":"Point","coordinates":[10.710392,59.945955]},"properties":{"id":"YOS:Station:560","operator":"oslobysykkel","name":"Gaustad T-bane","lat":59.945955,"lon":10.710392,"capacity":9,"is_installed":1,"is_renting":1,"is_returning":1,"num_bikes_available":0,"num_docks_available":9,"last_reported":1712065300}},{"type":"Feature","geometry":{"type":"Point","coordinates":[10.716909039918278,59.91731888534716]},"properties":{"id":"YOS:Station:548","operator":"oslobysykkel","name":"Colbj\u00f8rnsens gate","lat":59.91731888534716,"lon":10.716909039918278,"capacity":18,"is_installed":1,"is_renting":1,"is_returning":1,"num_bikes_available":0,"num_docks_available":18,"last_reported":1712065300}},{"type":"Feature","geometry":{"type":"Point","coordinates":[10.6760339,59.923898]},"properties":{"id":"YOS:Station:559","operator":"oslobysykkel","name":"Hoffsveien","lat":59.923898,"lon":10.6760339,"capacity":18,"is_installed":1,"is_renting":1,"is_returning":1,"num_bikes_available":9,"num_docks_available":9,"last_reported":1712065300}},{"type":"Feature","geometry":{"type":"Point","coordinates":[10.7310355,59.9261462]},"properties":{"id":"YOS:Station:550","operator":"oslobysykkel","name":"Thereses gate","lat":59.9261462,"lon":10.7310355,"capacity":9,"is_installed":1,"is_renting":1,"is_returning":1,"num_bikes_available":0,"num_docks_available":8,"last_reported":1712065300}},{"type":"Feature","geometry":{"type":"Point","coordinates":[10.7479977,59.9080552]},"properties":{"id":"YOS:Station:541","operator":"oslobysykkel","name":"Langkaia","lat":59.9080552,"lon":10.7479977,"capacity":12,"is_installed":1,"is_renting":1,"is_returning":1,"num_bikes_available":10,"num_docks_available":2,"last_reported":1712065300}},{"type":"Feature","geometry":{"type":"Point","coordinates":[10.752292,59.9123341]},"properties":{"id":"YOS:Station:527","operator":"oslobysykkel","name":"Biskop Gunnerus' gate","lat":59.9123341,"lon":10.752292,"capacity":12,"is_installed":1,"is_renting":1,"is_returning":1,"num_bikes_available":9,"num_docks_available":3,"last_reported":1712065300}},{"type":"Feature","geometry":{"type":"Point","coordinates":[10.7114661,59.9327726]},"properties":{"id":"YOS:Station:529","operator":"oslobysykkel","name":"Friggfeltet","lat":59.9327726,"lon":10.7114661,"capacity":21,"is_installed":1,"is_renting":1,"is_returning":1,"num_bikes_available":1,"num_docks_available":20,"last_reported":1712065300}},{"type":"Feature","geometry":{"type":"Point","coordinates":[10.7423101,59.9138973]},"properties":{"id":"YOS:Station:526","operator":"oslobysykkel","name":"Lille Grensen","lat":59.9138973,"lon":10.7423101,"capacity":15,"is_installed":1,"is_renting":1,"is_returning":1,"num_bikes_available":7,"num_docks_available":5,"last_reported":1712065300}},{"type":"Feature","geometry":{"type":"Point","coordinates":[10.738628884264756,59.9179676629428]},"properties":{"id":"YOS:Station:537","operator":"oslobysykkel","name":"St. Olavs gate","lat":59.9179676629428,"lon":10.738628884264756,"capacity":20,"is_installed":1,"is_renting":1,"is_returning":1,"num_bikes_available":14,"num_docks_available":5,"last_reported":1712065300}},{"type":"Feature","geometry":{"type":"Point","coordinates":[10.7481976,59.9112227]},"properties":{"id":"YOS:Station:547","operator":"oslobysykkel","name":"Skippergata","lat":59.9112227,"lon":10.7481976,"capacity":30,"is_installed":1,"is_renting":1,"is_returning":1,"num_bikes_available":26,"num_docks_available":3,"last_reported":1712065300}},{"type":"Feature","geometry":{"type":"Point","coordinates":[10.743669,59.913245]},"properties":{"id":"YOS:Station:528","operator":"oslobysykkel","name":"Nedre Slottsgate","lat":59.913245,"lon":10.743669,"capacity":15,"is_installed":1,"is_renting":1,"is_returning":1,"num_bikes_available":2,"num_docks_available":12,"last_reported":1712065300}},{"type":"Feature","geometry":{"type":"Point","coordinates":[10.7577241,59.9534114]},"properties":{"id":"YOS:Station:601","operator":"oslobysykkel","name":"Rolf Wickstr\u00f8ms vei","lat":59.9534114,"lon":10.7577241,"capacity":20,"is_installed":1,"is_renting":1,"is_returning":1,"num_bikes_available":1,"num_docks_available":19,"last_reported":1712065300}},{"type":"Feature","geometry":{"type":"Point","coordinates":[10.7253157,59.915262]},"properties":{"id":"YOS:Station:533","operator":"oslobysykkel","name":"S\u00f8rvest for Slottsparken","lat":59.915262,"lon":10.7253157,"capacity":12,"is_installed":1,"is_renting":1,"is_returning":1,"num_bikes_available":4,"num_docks_available":8,"last_reported":1712065300}},{"type":"Feature","geometry":{"type":"Point","coordinates":[10.726634,59.9200421]},"properties":{"id":"YOS:Station:535","operator":"oslobysykkel","name":"Uranienborgveien","lat":59.9200421,"lon":10.726634,"capacity":27,"is_installed":1,"is_renting":1,"is_returning":1,"num_bikes_available":0,"num_docks_available":26,"last_reported":1712065300}},{"type":"Feature","geometry":{"type":"Point","coordinates":[10.703967938028702,59.9330870371029]},"properties":{"id":"YOS:Station:524","operator":"oslobysykkel","name":"Volvat","lat":59.9330870371029,"lon":10.703967938028702,"capacity":21,"is_installed":1,"is_renting":1,"is_returning":1,"num_bikes_available":0,"num_docks_available":21,"last_reported":1712065300}},{"type":"Feature","geometry":{"type":"Point","coordinates":[10.703899530059402,59.918578143336774]},"properties":{"id":"YOS:Station:519","operator":"oslobysykkel","name":"Thomas Heftyes plass","lat":59.918578143336774,"lon":10.703899530059402,"capacity":24,"is_installed":1,"is_renting":1,"is_returning":1,"num_bikes_available":0,"num_docks_available":23,"last_reported":1712065300}},{"type":"Feature","geometry":{"type":"Point","coordinates":[10.7208788,59.9102277]},"properties":{"id":"YOS:Station:534","operator":"oslobysykkel","name":"Filipstadveien","lat":59.9102277,"lon":10.7208788,"capacity":39,"is_installed":1,"is_renting":1,"is_returning":1,"num_bikes_available":38,"num_docks_available":1,"last_reported":1712065300}},{"type":"Feature","geometry":{"type":"Point","coordinates":[10.7523939,59.9186359]},"properties":{"id":"YOS:Station:521","operator":"oslobysykkel","name":"Jess Carlsens gate","lat":59.9186359,"lon":10.7523939,"capacity":15,"is_installed":1,"is_renting":1,"is_returning":1,"num_bikes_available":3,"num_docks_available":12,"last_reported":1712065300}},{"type":"Feature","geometry":{"type":"Point","coordinates":[10.7296246,59.9262242]},"properties":{"id":"YOS:Station:556","operator":"oslobysykkel","name":"Pilestredet","lat":59.9262242,"lon":10.7296246,"capacity":18,"is_installed":1,"is_renting":1,"is_returning":1,"num_bikes_available":0,"num_docks_available":18,"last_reported":1712065300}},{"type":"Feature","geometry":{"type":"Point","coordinates":[10.7605813,59.937205]},"properties":{"id":"YOS:Station:525","operator":"oslobysykkel","name":"Myral\u00f8kka \u00d8st","lat":59.937205,"lon":10.7605813,"capacity":15,"is_installed":1,"is_renting":1,"is_returning":1,"num_bikes_available":0,"num_docks_available":14,"last_reported":1712065300}},{"type":"Feature","geometry":{"type":"Point","coordinates":[10.7482848,59.9433939]},"properties":{"id":"YOS:Station:517","operator":"oslobysykkel","name":"T\u00e5senl\u00f8kka","lat":59.9433939,"lon":10.7482848,"capacity":18,"is_installed":1,"is_renting":1,"is_returning":1,"num_bikes_available":3,"num_docks_available":15,"last_reported":1712065300}},{"type":"Feature","geometry":{"type":"Point","coordinates":[10.7617736,59.9115945]},"properties":{"id":"YOS:Station:523","operator":"oslobysykkel","name":"T\u00f8yenbekken","lat":59.9115945,"lon":10.7617736,"capacity":30,"is_installed":1,"is_renting":1,"is_returning":1,"num_bikes_available":14,"num_docks_available":16,"last_reported":1712065300}},{"type":"Feature","geometry":{"type":"Point","coordinates":[10.7638147,59.9123469]},"properties":{"id":"YOS:Station:522","operator":"oslobysykkel","name":"Mandalls gate","lat":59.9123469,"lon":10.7638147,"capacity":10,"is_installed":1,"is_renting":1,"is_returning":1,"num_bikes_available":4,"num_docks_available":6,"last_reported":1712065300}},{"type":"Feature","geometry":{"type":"Point","coordinates":[10.782129,59.915182]},"properties":{"id":"YOS:Station:594","operator":"oslobysykkel","name":"Kampen park \u00d8st","lat":59.915182,"lon":10.782129,"capacity":21,"is_installed":1,"is_renting":1,"is_returning":1,"num_bikes_available":0,"num_docks_available":21,"last_reported":1712065300}},{"type":"Feature","geometry":{"type":"Point","coordinates":[10.81431433498766,59.90918420865812]},"properties":{"id":"YOS:Station:532","operator":"oslobysykkel","name":"Brynseng T-bane","lat":59.90918420865812,"lon":10.81431433498766,"capacity":21,"is_installed":1,"is_renting":1,"is_returning":1,"num_bikes_available":14,"num_docks_available":7,"last_reported":1712065300}},{"type":"Feature","geometry":{"type":"Point","coordinates":[10.735595,59.912711]},"properties":{"id":"YOS:Station:509","operator":"oslobysykkel","name":"Kjeld Stubs gate","lat":59.912711,"lon":10.735595,"capacity":12,"is_installed":1,"is_renting":1,"is_returning":1,"num_bikes_available":6,"num_docks_available":6,"last_reported":1712065300}},{"type":"Feature","geometry":{"type":"Point","coordinates":[10.681138,59.935947]},"properties":{"id":"YOS:Station:531","operator":"oslobysykkel","name":"Monolittveien","lat":59.935947,"lon":10.681138,"capacity":18,"is_installed":1,"is_renting":1,"is_returning":1,"num_bikes_available":0,"num_docks_available":18,"last_reported":1712065300}},{"type":"Feature","geometry":{"type":"Point","coordinates":[10.7222803,59.915088]},"properties":{"id":"YOS:Station:511","operator":"oslobysykkel","name":"Henrik Ibsens gate","lat":59.915088,"lon":10.7222803,"capacity":24,"is_installed":1,"is_renting":1,"is_returning":1,"num_bikes_available":2,"num_docks_available":22,"last_reported":1712065300}},{"type":"Feature","geometry":{"type":"Point","coordinates":[10.723478,59.93215]},"properties":{"id":"YOS:Station:505","operator":"oslobysykkel","name":"Marienlystparken","lat":59.93215,"lon":10.723478,"capacity":24,"is_installed":1,"is_renting":1,"is_returning":1,"num_bikes_available":0,"num_docks_available":24,"last_reported":1712065300}},{"type":"Feature","geometry":{"type":"Point","coordinates":[10.765413,59.935995]},"properties":{"id":"YOS:Station:501","operator":"oslobysykkel","name":"Krebs' gate","lat":59.935995,"lon":10.765413,"capacity":18,"is_installed":1,"is_renting":1,"is_returning":1,"num_bikes_available":0,"num_docks_available":18,"last_reported":1712065300}},{"type":"Feature","geometry":{"type":"Point","coordinates":[10.7699892,59.9212063]},"properties":{"id":"YOS:Station:514","operator":"oslobysykkel","name":"Sofienberggata","lat":59.9212063,"lon":10.7699892,"capacity":12,"is_installed":1,"is_renting":1,"is_returning":1,"num_bikes_available":1,"num_docks_available":10,"last_reported":1712065300}},{"type":"Feature","geometry":{"type":"Point","coordinates":[10.7581553,59.9172794]},"properties":{"id":"YOS:Station:500","operator":"oslobysykkel","name":"Anker Hotel","lat":59.9172794,"lon":10.7581553,"capacity":12,"is_installed":1,"is_renting":1,"is_returning":1,"num_bikes_available":2,"num_docks_available":10,"last_reported":1712065300}},{"type":"Feature","geometry":{"type":"Point","coordinates":[10.76598469881135,59.927605868377185]},"properties":{"id":"YOS:Station:503","operator":"oslobysykkel","name":"Fagerheimgata","lat":59.927605868377185,"lon":10.76598469881135,"capacity":33,"is_installed":1,"is_renting":1,"is_returning":1,"num_bikes_available":0,"num_docks_available":32,"last_reported":1712065300}},{"type":"Feature","geometry":{"type":"Point","coordinates":[10.7960147,59.9273747]},"properties":{"id":"YOS:Station:513","operator":"oslobysykkel","name":"B\u00f8kkerveien","lat":59.9273747,"lon":10.7960147,"capacity":15,"is_installed":1,"is_renting":1,"is_returning":1,"num_bikes_available":3,"num_docks_available":11,"last_reported":1712065300}},{"type":"Feature","geometry":{"type":"Point","coordinates":[10.799249379762283,59.92763407981436]},"properties":{"id":"YOS:Station:498","operator":"oslobysykkel","name":"HasleLinje","lat":59.92763407981436,"lon":10.799249379762283,"capacity":12,"is_installed":1,"is_renting":1,"is_returning":1,"num_bikes_available":1,"num_docks_available":11,"last_reported":1712065300}},{"type":"Feature","geometry":{"type":"Point","coordinates":[10.76412958416006,59.91914743024347]},"properties":{"id":"YOS:Station:507","operator":"oslobysykkel","name":"Jens Bjelkes Gate","lat":59.91914743024347,"lon":10.76412958416006,"capacity":20,"is_installed":1,"is_renting":1,"is_returning":1,"num_bikes_available":2,"num_docks_available":18,"last_reported":1712065300}},{"type":"Feature","geometry":{"type":"Point","coordinates":[10.722993731144015,59.942780248542554]},"properties":{"id":"YOS:Station:619","operator":"oslobysykkel","name":"Bak Niels Treschows hus nord","lat":59.942780248542554,"lon":10.722993731144015,"capacity":42,"is_installed":1,"is_renting":1,"is_returning":1,"num_bikes_available":3,"num_docks_available":39,"last_reported":1712065300}},{"type":"Feature","geometry":{"type":"Point","coordinates":[10.720778851520523,59.940873733543725]},"properties":{"id":"YOS:Station:474","operator":"oslobysykkel","name":"Blindern studentparkering","lat":59.940873733543725,"lon":10.720778851520523,"capacity":42,"is_installed":1,"is_renting":1,"is_returning":1,"num_bikes_available":9,"num_docks_available":33,"last_reported":1712065300}},{"type":"Feature","geometry":{"type":"Point","coordinates":[10.723002619643406,59.939025551395765]},"properties":{"id":"YOS:Station:580","operator":"oslobysykkel","name":"Georg Morgenstiernes hus","lat":59.939025551395765,"lon":10.723002619643406,"capacity":45,"is_installed":1,"is_renting":1,"is_returning":1,"num_bikes_available":8,"num_docks_available":37,"last_reported":1712065300}},{"type":"Feature","geometry":{"type":"Point","coordinates":[10.719488529430388,59.937957367051965]},"properties":{"id":"YOS:Station:496","operator":"oslobysykkel","name":"Fysikkbygningen","lat":59.937957367051965,"lon":10.719488529430388,"capacity":45,"is_installed":1,"is_renting":1,"is_returning":1,"num_bikes_available":1,"num_docks_available":44,"last_reported":1712065300}},{"type":"Feature","geometry":{"type":"Point","coordinates":[10.766483,59.952868]},"properties":{"id":"YOS:Station:482","operator":"oslobysykkel","name":"Nydalen","lat":59.952868,"lon":10.766483,"capacity":18,"is_installed":1,"is_renting":1,"is_returning":1,"num_bikes_available":1,"num_docks_available":17,"last_reported":1712065300}},{"type":"Feature","geometry":{"type":"Point","coordinates":[10.751648,59.937743]},"properties":{"id":"YOS:Station:407","operator":"oslobysykkel","name":"Sagene bussholdeplass","lat":59.937743,"lon":10.751648,"capacity":15,"is_installed":1,"is_renting":1,"is_returning":1,"num_bikes_available":3,"num_docks_available":12,"last_reported":1712065300}},{"type":"Feature","geometry":{"type":"Point","coordinates":[10.730036,59.940398]},"properties":{"id":"YOS:Station:409","operator":"oslobysykkel","name":"John Colletts plass","lat":59.940398,"lon":10.730036,"capacity":25,"is_installed":1,"is_renting":1,"is_returning":1,"num_bikes_available":1,"num_docks_available":23,"last_reported":1712065300}},{"type":"Feature","geometry":{"type":"Point","coordinates":[10.726195,59.929419]},"properties":{"id":"YOS:Station:451","operator":"oslobysykkel","name":"Suhms gate","lat":59.929419,"lon":10.726195,"capacity":21,"is_installed":1,"is_renting":1,"is_returning":1,"num_bikes_available":0,"num_docks_available":21,"last_reported":1712065300}},{"type":"Feature","geometry":{"type":"Point","coordinates":[10.791823716034969,59.93087712510462]},"properties":{"id":"YOS:Station:402","operator":"oslobysykkel","name":"L\u00f8renveien","lat":59.93087712510462,"lon":10.791823716034969,"capacity":21,"is_installed":1,"is_renting":1,"is_returning":1,"num_bikes_available":0,"num_docks_available":21,"last_reported":1712065300}},{"type":"Feature","geometry":{"type":"Point","coordinates":[10.775658,59.922839]},"properties":{"id":"YOS:Station:516","operator":"oslobysykkel","name":"Finnmarksgata","lat":59.922839,"lon":10.775658,"capacity":15,"is_installed":1,"is_renting":1,"is_returning":1,"num_bikes_available":0,"num_docks_available":14,"last_reported":1712065300}},{"type":"Feature","geometry":{"type":"Point","coordinates":[10.737663,59.91336]},"properties":{"id":"YOS:Station:625","operator":"oslobysykkel","name":"Spikersuppa \u00d8st","lat":59.91336,"lon":10.737663,"capacity":42,"is_installed":1,"is_renting":1,"is_returning":1,"num_bikes_available":18,"num_docks_available":23,"last_reported":1712065300}},{"type":"Feature","geometry":{"type":"Point","coordinates":[10.68588,59.92208]},"properties":{"id":"YOS:Station:429","operator":"oslobysykkel","name":"Thune","lat":59.92208,"lon":10.68588,"capacity":21,"is_installed":1,"is_renting":1,"is_returning":1,"num_bikes_available":10,"num_docks_available":9,"last_reported":1712065300}},{"type":"Feature","geometry":{"type":"Point","coordinates":[10.75917,59.93923]},"properties":{"id":"YOS:Station:380","operator":"oslobysykkel","name":"Bentsebrugata","lat":59.93923,"lon":10.75917,"capacity":24,"is_installed":1,"is_renting":1,"is_returning":1,"num_bikes_available":0,"num_docks_available":23,"last_reported":1712065300}},{"type":"Feature","geometry":{"type":"Point","coordinates":[10.779164402446728,59.90707579234818]},"properties":{"id":"YOS:Station:583","operator":"oslobysykkel","name":"Galgeberg","lat":59.90707579234818,"lon":10.779164402446728,"capacity":18,"is_installed":1,"is_renting":1,"is_returning":1,"num_bikes_available":0,"num_docks_available":17,"last_reported":1712065300}},{"type":"Feature","geometry":{"type":"Point","coordinates":[10.75943014633117,59.92843404417577]},"properties":{"id":"YOS:Station:398","operator":"oslobysykkel","name":"Ringnes Park","lat":59.92843404417577,"lon":10.75943014633117,"capacity":18,"is_installed":1,"is_renting":1,"is_returning":1,"num_bikes_available":2,"num_docks_available":15,"last_reported":1712065300}},{"type":"Feature","geometry":{"type":"Point","coordinates":[10.76224,59.91252]},"properties":{"id":"YOS:Station:381","operator":"oslobysykkel","name":"Gr\u00f8nlands torg","lat":59.91252,"lon":10.76224,"capacity":15,"is_installed":1,"is_renting":1,"is_returning":1,"num_bikes_available":12,"num_docks_available":0,"last_reported":1712065300}},{"type":"Feature","geometry":{"type":"Point","coordinates":[10.753763553726515,59.905124380703484]},"properties":{"id":"YOS:Station:464","operator":"oslobysykkel","name":"Sukkerbiten","lat":59.905124380703484,"lon":10.753763553726515,"capacity":35,"is_installed":1,"is_renting":1,"is_returning":1,"num_bikes_available":4,"num_docks_available":28,"last_reported":1712065300}},{"type":"Feature","geometry":{"type":"Point","coordinates":[10.75101,59.92251]},"properties":{"id":"YOS:Station:442","operator":"oslobysykkel","name":"Vulkan","lat":59.92251,"lon":10.75101,"capacity":18,"is_installed":1,"is_renting":1,"is_returning":1,"num_bikes_available":0,"num_docks_available":15,"last_reported":1712065300}},{"type":"Feature","geometry":{"type":"Point","coordinates":[10.758328,59.915451]},"properties":{"id":"YOS:Station:483","operator":"oslobysykkel","name":"Hausmanns gate","lat":59.915451,"lon":10.758328,"capacity":21,"is_installed":1,"is_renting":1,"is_returning":1,"num_bikes_available":6,"num_docks_available":14,"last_reported":1712065300}},{"type":"Feature","geometry":{"type":"Point","coordinates":[10.77837,59.928349]},"properties":{"id":"YOS:Station:458","operator":"oslobysykkel","name":"Jenny Braatens Plass","lat":59.928349,"lon":10.77837,"capacity":15,"is_installed":1,"is_renting":1,"is_returning":1,"num_bikes_available":5,"num_docks_available":10,"last_reported":1712065300}},{"type":"Feature","geometry":{"type":"Point","coordinates":[10.746058,59.925488]},"properties":{"id":"YOS:Station:499","operator":"oslobysykkel","name":"Bjerregaards gate","lat":59.925488,"lon":10.746058,"capacity":21,"is_installed":1,"is_renting":1,"is_returning":1,"num_bikes_available":0,"num_docks_available":21,"last_reported":1712065300}},{"type":"Feature","geometry":{"type":"Point","coordinates":[10.7541,59.9378]},"properties":{"id":"YOS:Station:472","operator":"oslobysykkel","name":"Arendalsgata","lat":59.9378,"lon":10.7541,"capacity":24,"is_installed":1,"is_renting":1,"is_returning":1,"num_bikes_available":0,"num_docks_available":24,"last_reported":1712065300}},{"type":"Feature","geometry":{"type":"Point","coordinates":[10.768875408563598,59.92012811804052]},"properties":{"id":"YOS:Station:506","operator":"oslobysykkel","name":"Botanisk Hage vest","lat":59.92012811804052,"lon":10.768875408563598,"capacity":27,"is_installed":1,"is_renting":1,"is_returning":1,"num_bikes_available":0,"num_docks_available":27,"last_reported":1712065300}},{"type":"Feature","geometry":{"type":"Point","coordinates":[10.75618,59.909006]},"properties":{"id":"YOS:Station:465","operator":"oslobysykkel","name":"Bj\u00f8rvika","lat":59.909006,"lon":10.75618,"capacity":30,"is_installed":1,"is_renting":1,"is_returning":1,"num_bikes_available":17,"num_docks_available":11,"last_reported":1712065300}},{"type":"Feature","geometry":{"type":"Point","coordinates":[10.741869,59.908454]},"properties":{"id":"YOS:Station:611","operator":"oslobysykkel","name":"Bankplassen","lat":59.908454,"lon":10.741869,"capacity":39,"is_installed":1,"is_renting":1,"is_returning":1,"num_bikes_available":27,"num_docks_available":12,"last_reported":1712065300}},{"type":"Feature","geometry":{"type":"Point","coordinates":[10.720202,59.914306]},"properties":{"id":"YOS:Station:404","operator":"oslobysykkel","name":"Oslo Handelsgymnasium","lat":59.914306,"lon":10.720202,"capacity":27,"is_installed":1,"is_renting":1,"is_returning":1,"num_bikes_available":0,"num_docks_available":26,"last_reported":1712065300}},{"type":"Feature","geometry":{"type":"Point","coordinates":[10.724628,59.924732]},"properties":{"id":"YOS:Station:579","operator":"oslobysykkel","name":"Bogstadveien","lat":59.924732,"lon":10.724628,"capacity":18,"is_installed":1,"is_renting":1,"is_returning":1,"num_bikes_available":0,"num_docks_available":18,"last_reported":1712065300}},{"type":"Feature","geometry":{"type":"Point","coordinates":[10.674403950323182,59.89853221724158]},"properties":{"id":"YOS:Station:589","operator":"oslobysykkel","name":"Huk 1","lat":59.89853221724158,"lon":10.674403950323182,"capacity":27,"is_installed":1,"is_renting":1,"is_returning":1,"num_bikes_available":8,"num_docks_available":19,"last_reported":1712065300}},{"type":"Feature","geometry":{"type":"Point","coordinates":[10.7350062,59.9358883]},"properties":{"id":"YOS:Station:434","operator":"oslobysykkel","name":"Lindern","lat":59.9358883,"lon":10.7350062,"capacity":21,"is_installed":1,"is_renting":1,"is_returning":1,"num_bikes_available":16,"num_docks_available":4,"last_reported":1712065300}},{"type":"Feature","geometry":{"type":"Point","coordinates":[10.730981,59.92714]},"properties":{"id":"YOS:Station:462","operator":"oslobysykkel","name":"Stensparken","lat":59.92714,"lon":10.730981,"capacity":15,"is_installed":1,"is_renting":1,"is_returning":1,"num_bikes_available":1,"num_docks_available":14,"last_reported":1712065300}},{"type":"Feature","geometry":{"type":"Point","coordinates":[10.738655,59.922777]},"properties":{"id":"YOS:Station:578","operator":"oslobysykkel","name":"Hallings gate","lat":59.922777,"lon":10.738655,"capacity":24,"is_installed":1,"is_renting":1,"is_returning":1,"num_bikes_available":0,"num_docks_available":24,"last_reported":1712065300}},{"type":"Feature","geometry":{"type":"Point","coordinates":[10.781053,59.929542]},"properties":{"id":"YOS:Station:415","operator":"oslobysykkel","name":"Sinsenveien","lat":59.929542,"lon":10.781053,"capacity":12,"is_installed":1,"is_renting":1,"is_returning":1,"num_bikes_available":8,"num_docks_available":4,"last_reported":1712065300}},{"type":"Feature","geometry":{"type":"Point","coordinates":[10.760804,59.920335]},"properties":{"id":"YOS:Station:423","operator":"oslobysykkel","name":"Schous plass","lat":59.920335,"lon":10.760804,"capacity":20,"is_installed":1,"is_renting":1,"is_returning":1,"num_bikes_available":0,"num_docks_available":20,"last_reported":1712065300}},{"type":"Feature","geometry":{"type":"Point","coordinates":[10.754898,59.917866]},"properties":{"id":"YOS:Station:412","operator":"oslobysykkel","name":"Jakob kirke","lat":59.917866,"lon":10.754898,"capacity":9,"is_installed":1,"is_renting":1,"is_returning":1,"num_bikes_available":7,"num_docks_available":0,"last_reported":1712065300}},{"type":"Feature","geometry":{"type":"Point","coordinates":[10.735453,59.914586]},"properties":{"id":"YOS:Station:387","operator":"oslobysykkel","name":"Studenterlunden","lat":59.914586,"lon":10.735453,"capacity":15,"is_installed":1,"is_renting":1,"is_returning":1,"num_bikes_available":5,"num_docks_available":9,"last_reported":1712065300}},{"type":"Feature","geometry":{"type":"Point","coordinates":[10.708767,59.92808]},"properties":{"id":"YOS:Station:405","operator":"oslobysykkel","name":"Frognerbadet","lat":59.92808,"lon":10.708767,"capacity":18,"is_installed":1,"is_renting":1,"is_returning":1,"num_bikes_available":0,"num_docks_available":18,"last_reported":1712065300}},{"type":"Feature","geometry":{"type":"Point","coordinates":[10.741077,59.903989]},"properties":{"id":"YOS:Station:441","operator":"oslobysykkel","name":"Vippetangen \u00f8st","lat":59.903989,"lon":10.741077,"capacity":15,"is_installed":1,"is_renting":1,"is_returning":1,"num_bikes_available":12,"num_docks_available":3,"last_reported":1712065300}},{"type":"Feature","geometry":{"type":"Point","coordinates":[10.752003700187942,59.91014291324254]},"properties":{"id":"YOS:Station:443","operator":"oslobysykkel","name":"Sj\u00f8siden 1 ved trappen","lat":59.91014291324254,"lon":10.752003700187942,"capacity":45,"is_installed":1,"is_renting":1,"is_returning":1,"num_bikes_available":10,"num_docks_available":35,"last_reported":1712065300}},{"type":"Feature","geometry":{"type":"Point","coordinates":[10.651118,59.9198098]},"properties":{"id":"YOS:Station:454","operator":"oslobysykkel","name":"Furulund","lat":59.9198098,"lon":10.651118,"capacity":24,"is_installed":1,"is_renting":1,"is_returning":1,"num_bikes_available":1,"num_docks_available":23,"last_reported":1712065300}},{"type":"Feature","geometry":{"type":"Point","coordinates":[10.7130691,59.9244031]},"properties":{"id":"YOS:Station:436","operator":"oslobysykkel","name":"Vestkanttorvet","lat":59.9244031,"lon":10.7130691,"capacity":15,"is_installed":1,"is_renting":1,"is_returning":1,"num_bikes_available":0,"num_docks_available":14,"last_reported":1712065300}},{"type":"Feature","geometry":{"type":"Point","coordinates":[10.760121127577955,59.943777539367225]},"properties":{"id":"YOS:Station:394","operator":"oslobysykkel","name":"Bj\u00f8lsen Studentby","lat":59.943777539367225,"lon":10.760121127577955,"capacity":21,"is_installed":1,"is_renting":1,"is_returning":1,"num_bikes_available":1,"num_docks_available":20,"last_reported":1712065300}},{"type":"Feature","geometry":{"type":"Point","coordinates":[10.774712,59.919252]},"properties":{"id":"YOS:Station:497","operator":"oslobysykkel","name":"Sirkustomta","lat":59.919252,"lon":10.774712,"capacity":27,"is_installed":1,"is_renting":1,"is_returning":1,"num_bikes_available":8,"num_docks_available":17,"last_reported":1712065300}},{"type":"Feature","geometry":{"type":"Point","coordinates":[10.781088,59.908227]},"properties":{"id":"YOS:Station:581","operator":"oslobysykkel","name":"Jordalgata","lat":59.908227,"lon":10.781088,"capacity":24,"is_installed":1,"is_renting":1,"is_returning":1,"num_bikes_available":0,"num_docks_available":24,"last_reported":1712065300}},{"type":"Feature","geometry":{"type":"Point","coordinates":[10.786856,59.908576]},"properties":{"id":"YOS:Station:461","operator":"oslobysykkel","name":"V\u00e5lerenga","lat":59.908576,"lon":10.786856,"capacity":21,"is_installed":1,"is_renting":1,"is_returning":1,"num_bikes_available":0,"num_docks_available":20,"last_reported":1712065300}},{"type":"Feature","geometry":{"type":"Point","coordinates":[10.75011,59.910331]},"properties":{"id":"YOS:Station:599","operator":"oslobysykkel","name":"Pal\u00e9haven","lat":59.910331,"lon":10.75011,"capacity":48,"is_installed":1,"is_renting":1,"is_returning":1,"num_bikes_available":21,"num_docks_available":27,"last_reported":1712065300}},{"type":"Feature","geometry":{"type":"Point","coordinates":[10.6968953,59.9193337]},"properties":{"id":"YOS:Station:428","operator":"oslobysykkel","name":"Olav Kyrres plass","lat":59.9193337,"lon":10.6968953,"capacity":24,"is_installed":1,"is_renting":1,"is_returning":1,"num_bikes_available":0,"num_docks_available":24,"last_reported":1712065300}},{"type":"Feature","geometry":{"type":"Point","coordinates":[10.735428,59.919927]},"properties":{"id":"YOS:Station:400","operator":"oslobysykkel","name":"OsloMet","lat":59.919927,"lon":10.735428,"capacity":25,"is_installed":1,"is_renting":1,"is_returning":1,"num_bikes_available":4,"num_docks_available":21,"last_reported":1712065300}},{"type":"Feature","geometry":{"type":"Point","coordinates":[10.776971,59.926929]},"properties":{"id":"YOS:Station:487","operator":"oslobysykkel","name":"Carl Berners plass nord","lat":59.926929,"lon":10.776971,"capacity":21,"is_installed":1,"is_renting":1,"is_returning":1,"num_bikes_available":0,"num_docks_available":21,"last_reported":1712065300}},{"type":"Feature","geometry":{"type":"Point","coordinates":[10.768576,59.949239]},"properties":{"id":"YOS:Station:438","operator":"oslobysykkel","name":"BI Nydalen","lat":59.949239,"lon":10.768576,"capacity":42,"is_installed":1,"is_renting":1,"is_returning":1,"num_bikes_available":0,"num_docks_available":42,"last_reported":1712065300}},{"type":"Feature","geometry":{"type":"Point","coordinates":[10.71842,59.9281319]},"properties":{"id":"YOS:Station:459","operator":"oslobysykkel","name":"Valkyrieplassen","lat":59.9281319,"lon":10.71842,"capacity":12,"is_installed":1,"is_renting":1,"is_returning":1,"num_bikes_available":0,"num_docks_available":11,"last_reported":1712065300}},{"type":"Feature","geometry":{"type":"Point","coordinates":[10.748745,59.931828]},"properties":{"id":"YOS:Station:433","operator":"oslobysykkel","name":"Ila","lat":59.931828,"lon":10.748745,"capacity":18,"is_installed":1,"is_renting":1,"is_returning":1,"num_bikes_available":4,"num_docks_available":14,"last_reported":1712065300}},{"type":"Feature","geometry":{"type":"Point","coordinates":[10.7489862,59.929545]},"properties":{"id":"YOS:Station:399","operator":"oslobysykkel","name":"Uelands gate","lat":59.929545,"lon":10.7489862,"capacity":36,"is_installed":1,"is_renting":1,"is_returning":1,"num_bikes_available":0,"num_docks_available":36,"last_reported":1712065300}},{"type":"Feature","geometry":{"type":"Point","coordinates":[10.75155119076095,59.91598309274519]},"properties":{"id":"YOS:Station:489","operator":"oslobysykkel","name":"Torggata","lat":59.91598309274519,"lon":10.75155119076095,"capacity":30,"is_installed":1,"is_renting":1,"is_returning":1,"num_bikes_available":17,"num_docks_available":11,"last_reported":1712065300}},{"type":"Feature","geometry":{"type":"Point","coordinates":[10.79285,59.924342]},"properties":{"id":"YOS:Station:742","operator":"oslobysykkel","name":"Hasle","lat":59.924342,"lon":10.79285,"capacity":30,"is_installed":1,"is_renting":1,"is_returning":1,"num_bikes_available":0,"num_docks_available":30,"last_reported":1712065300}},{"type":"Feature","geometry":{"type":"Point","coordinates":[10.775996,59.92507]},"properties":{"id":"YOS:Station:406","operator":"oslobysykkel","name":"Carl Berners plass s\u00f8r","lat":59.92507,"lon":10.775996,"capacity":12,"is_installed":1,"is_renting":1,"is_returning":1,"num_bikes_available":1,"num_docks_available":10,"last_reported":1712065300}},{"type":"Feature","geometry":{"type":"Point","coordinates":[10.76915,59.93507]},"properties":{"id":"YOS:Station:488","operator":"oslobysykkel","name":"Torshovparken vest","lat":59.93507,"lon":10.76915,"capacity":24,"is_installed":1,"is_renting":1,"is_returning":1,"num_bikes_available":11,"num_docks_available":13,"last_reported":1712065300}},{"type":"Feature","geometry":{"type":"Point","coordinates":[10.769118139881124,59.93363159074286]},"properties":{"id":"YOS:Station:540","operator":"oslobysykkel","name":"Lilleborgbanen","lat":59.93363159074286,"lon":10.769118139881124,"capacity":36,"is_installed":1,"is_renting":1,"is_returning":1,"num_bikes_available":2,"num_docks_available":34,"last_reported":1712065300}},{"type":"Feature","geometry":{"type":"Point","coordinates":[10.773185,59.927292]},"properties":{"id":"YOS:Station:431","operator":"oslobysykkel","name":"Chr. Michelsens Gate","lat":59.927292,"lon":10.773185,"capacity":20,"is_installed":1,"is_renting":1,"is_returning":1,"num_bikes_available":0,"num_docks_available":20,"last_reported":1712065300}},{"type":"Feature","geometry":{"type":"Point","coordinates":[10.774319,59.939244]},"properties":{"id":"YOS:Station:393","operator":"oslobysykkel","name":"Hans Nielsen Hauges plass","lat":59.939244,"lon":10.774319,"capacity":21,"is_installed":1,"is_renting":1,"is_returning":1,"num_bikes_available":8,"num_docks_available":13,"last_reported":1712065300}},{"type":"Feature","geometry":{"type":"Point","coordinates":[10.766136667493829,59.94032925181832]},"properties":{"id":"YOS:Station:420","operator":"oslobysykkel","name":"Bj\u00f8lsendumpa","lat":59.94032925181832,"lon":10.766136667493829,"capacity":21,"is_installed":1,"is_renting":1,"is_returning":1,"num_bikes_available":0,"num_docks_available":21,"last_reported":1712065300}},{"type":"Feature","geometry":{"type":"Point","coordinates":[10.773805285879131,59.94671044754387]},"properties":{"id":"YOS:Station:397","operator":"oslobysykkel","name":"Storo Storsenter","lat":59.94671044754387,"lon":10.773805285879131,"capacity":42,"is_installed":1,"is_renting":1,"is_returning":1,"num_bikes_available":13,"num_docks_available":27,"last_reported":1712065300}},{"type":"Feature","geometry":{"type":"Point","coordinates":[10.732771354719745,59.91424026794647]},"properties":{"id":"YOS:Station:390","operator":"oslobysykkel","name":"Saga Kino","lat":59.91424026794647,"lon":10.732771354719745,"capacity":30,"is_installed":1,"is_renting":1,"is_returning":1,"num_bikes_available":6,"num_docks_available":23,"last_reported":1712065300}},{"type":"Feature","geometry":{"type":"Point","coordinates":[10.726229742333288,59.91357497092093]},"properties":{"id":"YOS:Station:449","operator":"oslobysykkel","name":"Rusel\u00f8kkg\u00e5rden","lat":59.91357497092093,"lon":10.726229742333288,"capacity":24,"is_installed":1,"is_renting":1,"is_returning":1,"num_bikes_available":7,"num_docks_available":17,"last_reported":1712065300}},{"type":"Feature","geometry":{"type":"Point","coordinates":[10.735886645853412,59.91372007130073]},"properties":{"id":"YOS:Station:430","operator":"oslobysykkel","name":"Spikersuppa Vest","lat":59.91372007130073,"lon":10.735886645853412,"capacity":42,"is_installed":1,"is_renting":1,"is_returning":1,"num_bikes_available":13,"num_docks_available":29,"last_reported":1712065300}},{"type":"Feature","geometry":{"type":"Point","coordinates":[10.683814,59.92033]},"properties":{"id":"YOS:Station:484","operator":"oslobysykkel","name":"Karenslyst all\u00e9","lat":59.92033,"lon":10.683814,"capacity":35,"is_installed":1,"is_renting":1,"is_returning":1,"num_bikes_available":12,"num_docks_available":23,"last_reported":1712065300}},{"type":"Feature","geometry":{"type":"Point","coordinates":[10.722509,59.909467]},"properties":{"id":"YOS:Station:479","operator":"oslobysykkel","name":"Tjuvholmen","lat":59.909467,"lon":10.722509,"capacity":30,"is_installed":1,"is_renting":1,"is_returning":1,"num_bikes_available":27,"num_docks_available":2,"last_reported":1712065300}},{"type":"Feature","geometry":{"type":"Point","coordinates":[10.730476,59.921768]},"properties":{"id":"YOS:Station:403","operator":"oslobysykkel","name":"Parkveien","lat":59.921768,"lon":10.730476,"capacity":15,"is_installed":1,"is_renting":1,"is_returning":1,"num_bikes_available":0,"num_docks_available":13,"last_reported":1712065300}},{"type":"Feature","geometry":{"type":"Point","coordinates":[10.714577,59.915424]},"properties":{"id":"YOS:Station:435","operator":"oslobysykkel","name":"Fram-g\u00e5rden","lat":59.915424,"lon":10.714577,"capacity":30,"is_installed":1,"is_renting":1,"is_returning":1,"num_bikes_available":0,"num_docks_available":30,"last_reported":1712065300}},{"type":"Feature","geometry":{"type":"Point","coordinates":[10.708375798767435,59.91728078292675]},"properties":{"id":"YOS:Station:426","operator":"oslobysykkel","name":"Gimle Kino","lat":59.91728078292675,"lon":10.708375798767435,"capacity":21,"is_installed":1,"is_renting":1,"is_returning":1,"num_bikes_available":0,"num_docks_available":20,"last_reported":1712065300}},{"type":"Feature","geometry":{"type":"Point","coordinates":[10.70884,59.919524]},"properties":{"id":"YOS:Station:450","operator":"oslobysykkel","name":"Elisenberg","lat":59.919524,"lon":10.70884,"capacity":15,"is_installed":1,"is_renting":1,"is_returning":1,"num_bikes_available":0,"num_docks_available":15,"last_reported":1712065300}},{"type":"Feature","geometry":{"type":"Point","coordinates":[10.7051061,59.9103558]},"properties":{"id":"YOS:Station:456","operator":"oslobysykkel","name":"Frognerstranda","lat":59.9103558,"lon":10.7051061,"capacity":35,"is_installed":1,"is_renting":1,"is_returning":1,"num_bikes_available":1,"num_docks_available":32,"last_reported":1712065300}},{"type":"Feature","geometry":{"type":"Point","coordinates":[10.710103028570302,59.912793405455375]},"properties":{"id":"YOS:Station:468","operator":"oslobysykkel","name":"Skillebekk","lat":59.912793405455375,"lon":10.710103028570302,"capacity":15,"is_installed":1,"is_renting":1,"is_returning":1,"num_bikes_available":1,"num_docks_available":14,"last_reported":1712065300}},{"type":"Feature","geometry":{"type":"Point","coordinates":[10.710262803261259,59.92753764682686]},"properties":{"id":"YOS:Station:453","operator":"oslobysykkel","name":"Frogner Stadion","lat":59.92753764682686,"lon":10.710262803261259,"capacity":36,"is_installed":1,"is_renting":1,"is_returning":1,"num_bikes_available":0,"num_docks_available":36,"last_reported":1712065300}},{"type":"Feature","geometry":{"type":"Point","coordinates":[10.73048,59.937913]},"properties":{"id":"YOS:Station:466","operator":"oslobysykkel","name":"Ullev\u00e5lsall\u00e9en","lat":59.937913,"lon":10.73048,"capacity":15,"is_installed":1,"is_renting":1,"is_returning":1,"num_bikes_available":1,"num_docks_available":14,"last_reported":1712065300}},{"type":"Feature","geometry":{"type":"Point","coordinates":[10.733357,59.920852]},"properties":{"id":"YOS:Station:469","operator":"oslobysykkel","name":"Studentparlamentet","lat":59.920852,"lon":10.733357,"capacity":30,"is_installed":1,"is_renting":1,"is_returning":1,"num_bikes_available":0,"num_docks_available":29,"last_reported":1712065300}},{"type":"Feature","geometry":{"type":"Point","coordinates":[10.741475,59.932383]},"properties":{"id":"YOS:Station:416","operator":"oslobysykkel","name":"Tannlegeh\u00f8yskolen","lat":59.932383,"lon":10.741475,"capacity":15,"is_installed":1,"is_renting":1,"is_returning":1,"num_bikes_available":0,"num_docks_available":15,"last_reported":1712065300}},{"type":"Feature","geometry":{"type":"Point","coordinates":[10.7342854,59.9205528]},"properties":{"id":"YOS:Station:389","operator":"oslobysykkel","name":"Pilestredet Studenthus","lat":59.9205528,"lon":10.7342854,"capacity":18,"is_installed":1,"is_renting":1,"is_returning":1,"num_bikes_available":1,"num_docks_available":17,"last_reported":1712065300}},{"type":"Feature","geometry":{"type":"Point","coordinates":[10.743540765932096,59.92979845370007]},"properties":{"id":"YOS:Station:470","operator":"oslobysykkel","name":"St. Hanshaugen park nord","lat":59.92979845370007,"lon":10.743540765932096,"capacity":15,"is_installed":1,"is_renting":1,"is_returning":1,"num_bikes_available":1,"num_docks_available":13,"last_reported":1712065300}},{"type":"Feature","geometry":{"type":"Point","coordinates":[10.734457,59.932792]},"properties":{"id":"YOS:Station:425","operator":"oslobysykkel","name":"Adamstuen","lat":59.932792,"lon":10.734457,"capacity":8,"is_installed":1,"is_renting":1,"is_returning":1,"num_bikes_available":1,"num_docks_available":7,"last_reported":1712065300}},{"type":"Feature","geometry":{"type":"Point","coordinates":[10.792831438028703,59.923240042155456]},"properties":{"id":"YOS:Station:411","operator":"oslobysykkel","name":"Hasle Torg","lat":59.923240042155456,"lon":10.792831438028703,"capacity":12,"is_installed":1,"is_renting":1,"is_returning":1,"num_bikes_available":0,"num_docks_available":10,"last_reported":1712065300}},{"type":"Feature","geometry":{"type":"Point","coordinates":[10.766171,59.923229]},"properties":{"id":"YOS:Station:598","operator":"oslobysykkel","name":"Sofienbergparken nord","lat":59.923229,"lon":10.766171,"capacity":33,"is_installed":1,"is_renting":1,"is_returning":1,"num_bikes_available":0,"num_docks_available":32,"last_reported":1712065300}},{"type":"Feature","geometry":{"type":"Point","coordinates":[10.750462,59.925265]},"properties":{"id":"YOS:Station:444","operator":"oslobysykkel","name":"AHO","lat":59.925265,"lon":10.750462,"capacity":20,"is_installed":1,"is_renting":1,"is_returning":1,"num_bikes_available":0,"num_docks_available":19,"last_reported":1712065300}},{"type":"Feature","geometry":{"type":"Point","coordinates":[10.786167,59.904473]},"properties":{"id":"YOS:Station:447","operator":"oslobysykkel","name":"Kv\u00e6rnerbyen","lat":59.904473,"lon":10.786167,"capacity":30,"is_installed":1,"is_renting":1,"is_returning":1,"num_bikes_available":3,"num_docks_available":27,"last_reported":1712065300}},{"type":"Feature","geometry":{"type":"Point","coordinates":[10.773977,59.914943]},"properties":{"id":"YOS:Station:408","operator":"oslobysykkel","name":"T\u00f8yen skole","lat":59.914943,"lon":10.773977,"capacity":15,"is_installed":1,"is_renting":1,"is_returning":1,"num_bikes_available":0,"num_docks_available":15,"last_reported":1712065300}},{"type":"Feature","geometry":{"type":"Point","coordinates":[10.7678,59.908255]},"properties":{"id":"YOS:Station:737","operator":"oslobysykkel","name":"Munkegata","lat":59.908255,"lon":10.7678,"capacity":24,"is_installed":1,"is_renting":1,"is_returning":1,"num_bikes_available":11,"num_docks_available":12,"last_reported":1712065300}},{"type":"Feature","geometry":{"type":"Point","coordinates":[10.739909,59.924821]},"properties":{"id":"YOS:Station:432","operator":"oslobysykkel","name":"St. Hanshaugen park s\u00f8r","lat":59.924821,"lon":10.739909,"capacity":12,"is_installed":1,"is_renting":1,"is_returning":1,"num_bikes_available":0,"num_docks_available":12,"last_reported":1712065300}},{"type":"Feature","geometry":{"type":"Point","coordinates":[10.760629,59.920259]},"properties":{"id":"YOS:Station:401","operator":"oslobysykkel","name":"Lille Schous plass","lat":59.920259,"lon":10.760629,"capacity":6,"is_installed":1,"is_renting":1,"is_returning":1,"num_bikes_available":1,"num_docks_available":5,"last_reported":1712065300}},{"type":"Feature","geometry":{"type":"Point","coordinates":[10.740627,59.903989]},"properties":{"id":"YOS:Station:452","operator":"oslobysykkel","name":"Vippetangen vest","lat":59.903989,"lon":10.740627,"capacity":30,"is_installed":1,"is_renting":1,"is_returning":1,"num_bikes_available":17,"num_docks_available":13,"last_reported":1712065300}},{"type":"Feature","geometry":{"type":"Point","coordinates":[10.751698750995615,59.910180852633516]},"properties":{"id":"YOS:Station:392","operator":"oslobysykkel","name":"Sj\u00f8siden 2 ved fontenen","lat":59.910180852633516,"lon":10.751698750995615,"capacity":50,"is_installed":1,"is_renting":1,"is_returning":1,"num_bikes_available":9,"num_docks_available":38,"last_reported":1712065300}},{"type":"Feature","geometry":{"type":"Point","coordinates":[10.736215,59.910924]},"properties":{"id":"YOS:Station:481","operator":"oslobysykkel","name":"R\u00e5dhusgata","lat":59.910924,"lon":10.736215,"capacity":42,"is_installed":1,"is_renting":1,"is_returning":1,"num_bikes_available":9,"num_docks_available":32,"last_reported":1712065300}},{"type":"Feature","geometry":{"type":"Point","coordinates":[10.757334670552268,59.91351552854147]},"properties":{"id":"YOS:Station:495","operator":"oslobysykkel","name":"Vaterlandsparken","lat":59.91351552854147,"lon":10.757334670552268,"capacity":41,"is_installed":1,"is_renting":1,"is_returning":1,"num_bikes_available":27,"num_docks_available":14,"last_reported":1712065300}},{"type":"Feature","geometry":{"type":"Point","coordinates":[10.749929,59.911901]},"properties":{"id":"YOS:Station:478","operator":"oslobysykkel","name":"Jernbanetorget","lat":59.911901,"lon":10.749929,"capacity":15,"is_installed":1,"is_renting":1,"is_returning":1,"num_bikes_available":3,"num_docks_available":10,"last_reported":1712065300}},{"type":"Feature","geometry":{"type":"Point","coordinates":[10.7544337247013,59.91218291295141]},"properties":{"id":"YOS:Station:448","operator":"oslobysykkel","name":"Oslo Plaza","lat":59.91218291295141,"lon":10.7544337247013,"capacity":9,"is_installed":1,"is_renting":1,"is_returning":1,"num_bikes_available":6,"num_docks_available":3,"last_reported":1712065300}},{"type":"Feature","geometry":{"type":"Point","coordinates":[10.736179,59.919111]},"properties":{"id":"YOS:Station:476","operator":"oslobysykkel","name":"Edvard Storms gate","lat":59.919111,"lon":10.736179,"capacity":20,"is_installed":1,"is_renting":1,"is_returning":1,"num_bikes_available":9,"num_docks_available":10,"last_reported":1712065300}},{"type":"Feature","geometry":{"type":"Point","coordinates":[10.67666,59.921673]},"properties":{"id":"YOS:Station:445","operator":"oslobysykkel","name":"Sj\u00f8lyst","lat":59.921673,"lon":10.67666,"capacity":18,"is_installed":1,"is_renting":1,"is_returning":1,"num_bikes_available":2,"num_docks_available":16,"last_reported":1712065300}},{"type":"Feature","geometry":{"type":"Point","coordinates":[10.715505,59.914145]},"properties":{"id":"YOS:Station:748","operator":"oslobysykkel","name":"Hydroparken","lat":59.914145,"lon":10.715505,"capacity":30,"is_installed":1,"is_renting":1,"is_returning":1,"num_bikes_available":1,"num_docks_available":29,"last_reported":1712065300}},{"type":"Feature","geometry":{"type":"Point","coordinates":[10.716195,59.926697]},"properties":{"id":"YOS:Station:473","operator":"oslobysykkel","name":"Majorstuveien","lat":59.926697,"lon":10.716195,"capacity":9,"is_installed":1,"is_renting":1,"is_returning":1,"num_bikes_available":0,"num_docks_available":9,"last_reported":1712065300}},{"type":"Feature","geometry":{"type":"Point","coordinates":[10.749466,59.934936]},"properties":{"id":"YOS:Station:383","operator":"oslobysykkel","name":"Arkitekt Rivertz Plass","lat":59.934936,"lon":10.749466,"capacity":30,"is_installed":1,"is_renting":1,"is_returning":1,"num_bikes_available":14,"num_docks_available":11,"last_reported":1712065300}},{"type":"Feature","geometry":{"type":"Point","coordinates":[10.7661939,59.9121109]},"properties":{"id":"YOS:Station:480","operator":"oslobysykkel","name":"Helga Helgesens plass","lat":59.9121109,"lon":10.7661939,"capacity":25,"is_installed":1,"is_renting":1,"is_returning":1,"num_bikes_available":3,"num_docks_available":21,"last_reported":1712065300}},{"type":"Feature","geometry":{"type":"Point","coordinates":[10.751202636819613,59.92806670615684]},"properties":{"id":"YOS:Station:421","operator":"oslobysykkel","name":"Alexander Kiellands Plass","lat":59.92806670615684,"lon":10.751202636819613,"capacity":24,"is_installed":1,"is_renting":1,"is_returning":1,"num_bikes_available":0,"num_docks_available":21,"last_reported":1712065300}},{"type":"Feature","geometry":{"type":"Point","coordinates":[10.692321,59.919001]},"properties":{"id":"YOS:Station:746","operator":"oslobysykkel","name":"Bygd\u00f8y all\u00e9","lat":59.919001,"lon":10.692321,"capacity":12,"is_installed":1,"is_renting":1,"is_returning":1,"num_bikes_available":4,"num_docks_available":8,"last_reported":1712065300}},{"type":"Feature","geometry":{"type":"Point","coordinates":[10.711284727205708,59.92984300295666]},"properties":{"id":"YOS:Station:378","operator":"oslobysykkel","name":"Colosseum Kino","lat":59.92984300295666,"lon":10.711284727205708,"capacity":12,"is_installed":1,"is_renting":1,"is_returning":1,"num_bikes_available":0,"num_docks_available":12,"last_reported":1712065300}},{"type":"Feature","geometry":{"type":"Point","coordinates":[10.720896,59.922485]},"properties":{"id":"YOS:Station:417","operator":"oslobysykkel","name":"Uranienborgparken","lat":59.922485,"lon":10.720896,"capacity":15,"is_installed":1,"is_renting":1,"is_returning":1,"num_bikes_available":0,"num_docks_available":15,"last_reported":1712065300}},{"type":"Feature","geometry":{"type":"Point","coordinates":[10.717978,59.920218]},"properties":{"id":"YOS:Station:427","operator":"oslobysykkel","name":"Briskeby","lat":59.920218,"lon":10.717978,"capacity":15,"is_installed":1,"is_renting":1,"is_returning":1,"num_bikes_available":0,"num_docks_available":15,"last_reported":1712065300}},{"type":"Feature","geometry":{"type":"Point","coordinates":[10.7098327,59.9261831]},"properties":{"id":"YOS:Station:395","operator":"oslobysykkel","name":"Frogner Tennisklubb","lat":59.9261831,"lon":10.7098327,"capacity":15,"is_installed":1,"is_renting":1,"is_returning":1,"num_bikes_available":0,"num_docks_available":15,"last_reported":1712065300}},{"type":"Feature","geometry":{"type":"Point","coordinates":[10.686843,59.907674]},"properties":{"id":"YOS:Station:418","operator":"oslobysykkel","name":"Norsk Folkemuseum","lat":59.907674,"lon":10.686843,"capacity":12,"is_installed":1,"is_renting":1,"is_returning":1,"num_bikes_available":2,"num_docks_available":10,"last_reported":1712065300}},{"type":"Feature","geometry":{"type":"Point","coordinates":[10.716926,59.929045]},"properties":{"id":"YOS:Station:413","operator":"oslobysykkel","name":"Majorstuen","lat":59.929045,"lon":10.716926,"capacity":18,"is_installed":1,"is_renting":1,"is_returning":1,"num_bikes_available":0,"num_docks_available":18,"last_reported":1712065300}},{"type":"Feature","geometry":{"type":"Point","coordinates":[10.726476622250004,59.93522040770026]},"properties":{"id":"YOS:Station:486","operator":"oslobysykkel","name":"Blindern Studenthus","lat":59.93522040770026,"lon":10.726476622250004,"capacity":24,"is_installed":1,"is_renting":1,"is_returning":1,"num_bikes_available":0,"num_docks_available":24,"last_reported":1712065300}},{"type":"Feature","geometry":{"type":"Point","coordinates":[10.721762294477472,59.932432498521095]},"properties":{"id":"YOS:Station:471","operator":"oslobysykkel","name":"Marienlyst","lat":59.932432498521095,"lon":10.721762294477472,"capacity":12,"is_installed":1,"is_renting":1,"is_returning":1,"num_bikes_available":0,"num_docks_available":12,"last_reported":1712065300}},{"type":"Feature","geometry":{"type":"Point","coordinates":[10.750358,59.920995]},"properties":{"id":"YOS:Station:597","operator":"oslobysykkel","name":"Fredensborg","lat":59.920995,"lon":10.750358,"capacity":15,"is_installed":1,"is_renting":1,"is_returning":1,"num_bikes_available":0,"num_docks_available":12,"last_reported":1712065300}},{"type":"Feature","geometry":{"type":"Point","coordinates":[10.740542,59.923703]},"properties":{"id":"YOS:Station:422","operator":"oslobysykkel","name":"St. Hanshaugen","lat":59.923703,"lon":10.740542,"capacity":12,"is_installed":1,"is_renting":1,"is_returning":1,"num_bikes_available":0,"num_docks_available":11,"last_reported":1712065300}},{"type":"Feature","geometry":{"type":"Point","coordinates":[10.732839000000013,59.92958561753996]},"properties":{"id":"YOS:Station:382","operator":"oslobysykkel","name":"Stensgata","lat":59.92958561753996,"lon":10.732839000000013,"capacity":9,"is_installed":1,"is_renting":1,"is_returning":1,"num_bikes_available":0,"num_docks_available":9,"last_reported":1712065300}},{"type":"Feature","geometry":{"type":"Point","coordinates":[10.751140873016311,59.91546786564256]},"properties":{"id":"YOS:Station:437","operator":"oslobysykkel","name":"Sentrum Scene","lat":59.91546786564256,"lon":10.751140873016311,"capacity":24,"is_installed":1,"is_renting":1,"is_returning":1,"num_bikes_available":17,"num_docks_available":7,"last_reported":1712065300}},{"type":"Feature","geometry":{"type":"Point","coordinates":[10.73121932213806,59.925471317049954]},"properties":{"id":"YOS:Station:446","operator":"oslobysykkel","name":"Bislett Stadion","lat":59.925471317049954,"lon":10.73121932213806,"capacity":24,"is_installed":1,"is_renting":1,"is_returning":1,"num_bikes_available":0,"num_docks_available":23,"last_reported":1712065300}},{"type":"Feature","geometry":{"type":"Point","coordinates":[10.760926,59.9256113]},"properties":{"id":"YOS:Station:424","operator":"oslobysykkel","name":"Birkelunden","lat":59.9256113,"lon":10.760926,"capacity":10,"is_installed":1,"is_renting":1,"is_returning":1,"num_bikes_available":0,"num_docks_available":10,"last_reported":1712065300}},{"type":"Feature","geometry":{"type":"Point","coordinates":[10.7617503,59.922337]},"properties":{"id":"YOS:Station:455","operator":"oslobysykkel","name":"Sofienbergparken s\u00f8r","lat":59.922337,"lon":10.7617503,"capacity":12,"is_installed":1,"is_renting":1,"is_returning":1,"num_bikes_available":0,"num_docks_available":12,"last_reported":1712065300}},{"type":"Feature","geometry":{"type":"Point","coordinates":[10.7717192,59.9230577]},"properties":{"id":"YOS:Station:457","operator":"oslobysykkel","name":"Trondheimsveien","lat":59.9230577,"lon":10.7717192,"capacity":10,"is_installed":1,"is_renting":1,"is_returning":1,"num_bikes_available":0,"num_docks_available":10,"last_reported":1712065300}},{"type":"Feature","geometry":{"type":"Point","coordinates":[10.7775665,59.915667]},"properties":{"id":"YOS:Station:377","operator":"oslobysykkel","name":"T\u00f8yenparken","lat":59.915667,"lon":10.7775665,"capacity":29,"is_installed":1,"is_renting":1,"is_returning":1,"num_bikes_available":16,"num_docks_available":13,"last_reported":1712065300}},{"type":"Feature","geometry":{"type":"Point","coordinates":[10.777958,59.9034528]},"properties":{"id":"YOS:Station:738","operator":"oslobysykkel","name":"Lodalen busstopp","lat":59.9034528,"lon":10.777958,"capacity":12,"is_installed":1,"is_renting":1,"is_returning":1,"num_bikes_available":5,"num_docks_available":6,"last_reported":1712065300}},{"type":"Feature","geometry":{"type":"Point","coordinates":[10.76933022142641,59.915417698024385]},"properties":{"id":"YOS:Station:460","operator":"oslobysykkel","name":"Botanisk Hage s\u00f8r","lat":59.915417698024385,"lon":10.76933022142641,"capacity":29,"is_installed":1,"is_renting":1,"is_returning":1,"num_bikes_available":1,"num_docks_available":28,"last_reported":1712065300}},{"type":"Feature","geometry":{"type":"Point","coordinates":[10.762169,59.9315302]},"properties":{"id":"YOS:Station:744","operator":"oslobysykkel","name":"Hall\u00e9nparken","lat":59.9315302,"lon":10.762169,"capacity":10,"is_installed":1,"is_renting":1,"is_returning":1,"num_bikes_available":0,"num_docks_available":8,"last_reported":1712065300}},{"type":"Feature","geometry":{"type":"Point","coordinates":[10.776072,59.911453]},"properties":{"id":"YOS:Station:485","operator":"oslobysykkel","name":"Sommerfrydhagen","lat":59.911453,"lon":10.776072,"capacity":21,"is_installed":1,"is_renting":1,"is_returning":1,"num_bikes_available":0,"num_docks_available":16,"last_reported":1712065300}},{"type":"Feature","geometry":{"type":"Point","coordinates":[5.273174034250616,60.34722011283134]},"properties":{"id":"YBE:Station:3724","operator":"bergenbysykkel","name":"Holtet Borettslag","lat":60.34722011283134,"lon":5.273174034250616,"capacity":9,"is_installed":1,"is_renting":1,"is_returning":1,"num_bikes_available":3,"num_docks_available":6,"last_reported":1712065349}},{"type":"Feature","geometry":{"type":"Point","coordinates":[5.290126212391755,60.36046422871607]},"properties":{"id":"YBE:Station:3610","operator":"bergenbysykkel","name":"Vestlund Borettslag","lat":60.36046422871607,"lon":5.290126212391755,"capacity":10,"is_installed":1,"is_renting":1,"is_returning":1,"num_bikes_available":2,"num_docks_available":8,"last_reported":1712065349}},{"type":"Feature","geometry":{"type":"Point","coordinates":[5.288490147562243,60.34929962482292]},"properties":{"id":"YBE:Station:3438","operator":"bergenbysykkel","name":"Fyllingsdalen bussterminal","lat":60.34929962482292,"lon":5.288490147562243,"capacity":10,"is_installed":1,"is_renting":1,"is_returning":1,"num_bikes_available":0,"num_docks_available":10,"last_reported":1712065349}},{"type":"Feature","geometry":{"type":"Point","coordinates":[5.299180336561079,60.35445411401244]},"properties":{"id":"YBE:Station:3437","operator":"bergenbysykkel","name":"Lynghaug Borettslag","lat":60.35445411401244,"lon":5.299180336561079,"capacity":6,"is_installed":1,"is_renting":1,"is_returning":1,"num_bikes_available":3,"num_docks_available":3,"last_reported":1712065349}},{"type":"Feature","geometry":{"type":"Point","coordinates":[5.298680226505098,60.35264796598477]},"properties":{"id":"YBE:Station:3436","operator":"bergenbysykkel","name":"Dag Hammarskj\u00f6ldsvei 73","lat":60.35264796598477,"lon":5.298680226505098,"capacity":9,"is_installed":1,"is_renting":1,"is_returning":1,"num_bikes_available":3,"num_docks_available":6,"last_reported":1712065349}},{"type":"Feature","geometry":{"type":"Point","coordinates":[5.293049946752319,60.354761862612236]},"properties":{"id":"YBE:Station:3400","operator":"bergenbysykkel","name":"Lynghaugparken","lat":60.354761862612236,"lon":5.293049946752319,"capacity":9,"is_installed":1,"is_renting":1,"is_returning":1,"num_bikes_available":7,"num_docks_available":2,"last_reported":1712065349}},{"type":"Feature","geometry":{"type":"Point","coordinates":[5.286669158622601,60.34515023813836]},"properties":{"id":"YBE:Station:3399","operator":"bergenbysykkel","name":"Ortun Sv\u00f8mmehall","lat":60.34515023813836,"lon":5.286669158622601,"capacity":7,"is_installed":1,"is_renting":1,"is_returning":1,"num_bikes_available":2,"num_docks_available":5,"last_reported":1712065349}},{"type":"Feature","geometry":{"type":"Point","coordinates":[5.28332212346433,60.34541065445748]},"properties":{"id":"YBE:Station:3398","operator":"bergenbysykkel","name":"S\u00e6len","lat":60.34541065445748,"lon":5.28332212346433,"capacity":13,"is_installed":1,"is_renting":1,"is_returning":1,"num_bikes_available":3,"num_docks_available":10,"last_reported":1712065349}},{"type":"Feature","geometry":{"type":"Point","coordinates":[5.342069876253731,60.35779657270476]},"properties":{"id":"YBE:Station:3397","operator":"bergenbysykkel","name":"Kristianborg bybanestopp","lat":60.35779657270476,"lon":5.342069876253731,"capacity":16,"is_installed":1,"is_renting":1,"is_returning":1,"num_bikes_available":0,"num_docks_available":16,"last_reported":1712065349}},{"type":"Feature","geometry":{"type":"Point","coordinates":[5.349552885719248,60.37178687508714]},"properties":{"id":"YBE:Station:3396","operator":"bergenbysykkel","name":"Kronstad bybanestopp","lat":60.37178687508714,"lon":5.349552885719248,"capacity":25,"is_installed":1,"is_renting":1,"is_returning":1,"num_bikes_available":17,"num_docks_available":8,"last_reported":1712065349}},{"type":"Feature","geometry":{"type":"Point","coordinates":[5.288172686196418,60.34877037988127]},"properties":{"id":"YBE:Station:3395","operator":"bergenbysykkel","name":"Oasen","lat":60.34877037988127,"lon":5.288172686196418,"capacity":25,"is_installed":1,"is_renting":1,"is_returning":1,"num_bikes_available":14,"num_docks_available":11,"last_reported":1712065349}},{"type":"Feature","geometry":{"type":"Point","coordinates":[5.289942788398179,60.35131138665341]},"properties":{"id":"YBE:Station:3394","operator":"bergenbysykkel","name":"Folke Bernadottesvei 38","lat":60.35131138665341,"lon":5.289942788398179,"capacity":15,"is_installed":1,"is_renting":1,"is_returning":1,"num_bikes_available":0,"num_docks_available":15,"last_reported":1712065349}},{"type":"Feature","geometry":{"type":"Point","coordinates":[5.291006144381328,60.34103053759091]},"properties":{"id":"YBE:Station:3393","operator":"bergenbysykkel","name":"Ortustranden","lat":60.34103053759091,"lon":5.291006144381328,"capacity":10,"is_installed":1,"is_renting":1,"is_returning":1,"num_bikes_available":0,"num_docks_available":10,"last_reported":1712065349}},{"type":"Feature","geometry":{"type":"Point","coordinates":[5.297121899354551,60.3454585991698]},"properties":{"id":"YBE:Station:3392","operator":"bergenbysykkel","name":"S\u00e6lemyr busstopp","lat":60.3454585991698,"lon":5.297121899354551,"capacity":13,"is_installed":1,"is_renting":1,"is_returning":1,"num_bikes_available":7,"num_docks_available":6,"last_reported":1712065349}},{"type":"Feature","geometry":{"type":"Point","coordinates":[5.278626852345383,60.349700584307215]},"properties":{"id":"YBE:Station:3391","operator":"bergenbysykkel","name":"Spelhaugen","lat":60.349700584307215,"lon":5.278626852345383,"capacity":10,"is_installed":1,"is_renting":1,"is_returning":1,"num_bikes_available":4,"num_docks_available":6,"last_reported":1712065349}},{"type":"Feature","geometry":{"type":"Point","coordinates":[5.316471128195502,60.402481499763354]},"properties":{"id":"YBE:Station:2352","operator":"bergenbysykkel","name":"Bontelabo 8","lat":60.402481499763354,"lon":5.316471128195502,"capacity":7,"is_installed":1,"is_renting":1,"is_returning":1,"num_bikes_available":4,"num_docks_available":3,"last_reported":1712065349}},{"type":"Feature","geometry":{"type":"Point","coordinates":[5.309946203281243,60.41830821831951]},"properties":{"id":"YBE:Station:2346","operator":"bergenbysykkel","name":"Gamle Bergen","lat":60.41830821831951,"lon":5.309946203281243,"capacity":13,"is_installed":1,"is_renting":1,"is_returning":1,"num_bikes_available":0,"num_docks_available":13,"last_reported":1712065349}},{"type":"Feature","geometry":{"type":"Point","coordinates":[5.316562300638424,60.40175764348675]},"properties":{"id":"YBE:Station:2338","operator":"bergenbysykkel","name":"Bontelabo","lat":60.40175764348675,"lon":5.316562300638424,"capacity":7,"is_installed":1,"is_renting":1,"is_returning":1,"num_bikes_available":6,"num_docks_available":1,"last_reported":1712065349}},{"type":"Feature","geometry":{"type":"Point","coordinates":[5.350823586678217,60.380044402639385]},"properties":{"id":"YBE:Station:2336","operator":"bergenbysykkel","name":"M\u00f8llestranden","lat":60.380044402639385,"lon":5.350823586678217,"capacity":14,"is_installed":1,"is_renting":1,"is_returning":1,"num_bikes_available":3,"num_docks_available":11,"last_reported":1712065349}},{"type":"Feature","geometry":{"type":"Point","coordinates":[5.331698655041777,60.38174958551062]},"properties":{"id":"YBE:Station:2322","operator":"bergenbysykkel","name":"H\u00f8yteknologisenteret","lat":60.38174958551062,"lon":5.331698655041777,"capacity":25,"is_installed":1,"is_renting":1,"is_returning":1,"num_bikes_available":0,"num_docks_available":25,"last_reported":1712065349}},{"type":"Feature","geometry":{"type":"Point","coordinates":[5.3114871140229525,60.38422650043981]},"properties":{"id":"YBE:Station:2321","operator":"bergenbysykkel","name":"Damsg\u00e5rdsveien 125","lat":60.38422650043981,"lon":5.3114871140229525,"capacity":19,"is_installed":1,"is_renting":1,"is_returning":1,"num_bikes_available":1,"num_docks_available":18,"last_reported":1712065349}},{"type":"Feature","geometry":{"type":"Point","coordinates":[5.34094712971887,60.388242218095]},"properties":{"id":"YBE:Station:2314","operator":"bergenbysykkel","name":"Kalfarveien 31","lat":60.388242218095,"lon":5.34094712971887,"capacity":13,"is_installed":1,"is_renting":1,"is_returning":1,"num_bikes_available":7,"num_docks_available":6,"last_reported":1712065349}},{"type":"Feature","geometry":{"type":"Point","coordinates":[5.335575458852787,60.37708169275558]},"properties":{"id":"YBE:Station:2313","operator":"bergenbysykkel","name":"Solheimsviken","lat":60.37708169275558,"lon":5.335575458852787,"capacity":19,"is_installed":1,"is_renting":1,"is_returning":1,"num_bikes_available":0,"num_docks_available":18,"last_reported":1712065349}},{"type":"Feature","geometry":{"type":"Point","coordinates":[5.344655017198988,60.379576056996115]},"properties":{"id":"YBE:Station:1900","operator":"bergenbysykkel","name":"Tonningneset","lat":60.379576056996115,"lon":5.344655017198988,"capacity":12,"is_installed":1,"is_renting":1,"is_returning":1,"num_bikes_available":2,"num_docks_available":10,"last_reported":1712065349}},{"type":"Feature","geometry":{"type":"Point","coordinates":[5.352659970408496,60.3720506380196]},"properties":{"id":"YBE:Station:1898","operator":"bergenbysykkel","name":"Kronstad","lat":60.3720506380196,"lon":5.352659970408496,"capacity":12,"is_installed":1,"is_renting":1,"is_returning":1,"num_bikes_available":5,"num_docks_available":7,"last_reported":1712065349}},{"type":"Feature","geometry":{"type":"Point","coordinates":[5.303070676006087,60.423343433292786]},"properties":{"id":"YBE:Station:1897","operator":"bergenbysykkel","name":"NHH","lat":60.423343433292786,"lon":5.303070676006087,"capacity":20,"is_installed":1,"is_renting":1,"is_returning":1,"num_bikes_available":1,"num_docks_available":19,"last_reported":1712065349}},{"type":"Feature","geometry":{"type":"Point","coordinates":[5.306410871328268,60.39886453454994]},"properties":{"id":"YBE:Station:1896","operator":"bergenbysykkel","name":"Takhagen p\u00e5 Nordnes","lat":60.39886453454994,"lon":5.306410871328268,"capacity":10,"is_installed":1,"is_renting":1,"is_returning":1,"num_bikes_available":0,"num_docks_available":10,"last_reported":1712065349}},{"type":"Feature","geometry":{"type":"Point","coordinates":[5.325658910381037,60.40568787342849]},"properties":{"id":"YBE:Station:1895","operator":"bergenbysykkel","name":"Kirkegaten","lat":60.40568787342849,"lon":5.325658910381037,"capacity":9,"is_installed":1,"is_renting":1,"is_returning":1,"num_bikes_available":0,"num_docks_available":9,"last_reported":1712065349}},{"type":"Feature","geometry":{"type":"Point","coordinates":[5.330654155344547,60.393323250707]},"properties":{"id":"YBE:Station:1894","operator":"bergenbysykkel","name":"Kong Oscars gate","lat":60.393323250707,"lon":5.330654155344547,"capacity":13,"is_installed":1,"is_renting":1,"is_returning":1,"num_bikes_available":2,"num_docks_available":11,"last_reported":1712065349}},{"type":"Feature","geometry":{"type":"Point","coordinates":[5.353846489647282,60.370493777025985]},