{"type": "FeatureCollection", "features": [{"type": "Feature", "properties": {"VehicleRef": "3360111113", "LineRef": "AKT:Line:235", "DataSource": "AKT", "CurrentDelay": "PT3M5S", "DestinationName": "Lyngdal"}, "geometry": {"type": "Point", "coordinates": [7.07280152477324, 58.1381616555154]}}, {"type": "Feature", "properties": {"VehicleRef": "3360111102", "LineRef": "AKT:Line:238", "DataSource": "AKT", "CurrentDelay": "PT2M31S", "DestinationName": "Farbrot"}, "geometry": {"type": "Point", "coordinates": [6.94513374008238, 58.1129985116422]}}, {"type": "Feature", "properties": {"VehicleRef": "3360111114", "LineRef": "AKT:Line:238", "DataSource": "AKT", "CurrentDelay": "PT2M", "DestinationName": "Lyngdal"}, "geometry": {"type": "Point", "coordinates": [7.07275743596256, 58.1383655872196]}}, {"type": "Feature", "properties": {"VehicleRef": "3360111117", "LineRef": "AKT:Line:238", "DataSource": "AKT", "CurrentDelay": "PT1M45S", "DestinationName": "Lyngdal - Rom"}, "geometry": {"type": "Point", "coordinates": [7.10221647284925, 58.1560494750738]}}, {"type": "Feature", "properties": {"VehicleRef": "3360110267", "LineRef": "AKT:Line:145", "DataSource": "AKT", "CurrentDelay": "PT50S", "DestinationName": "Grimstad"}, "geometry": {"type": "Point", "coordinates": [8.59244333580136, 58.339294726029]}}, {"type": "Feature", "properties": {"VehicleRef": "3360110272", "LineRef": "AKT:Line:1908", "DataSource": "AKT", "CurrentDelay": "-PT5M30S", "DestinationName": "Grimstad"}, "geometry": {"type": "Point", "coordinates": [8.59215818345547, 58.338358970359]}}, {"type": "Feature", "properties": {"VehicleRef": "3360110273", "LineRef": "AKT:Line:1908", "DataSource": "AKT", "CurrentDelay": "PT37S", "DestinationName": "Birkeland"}, "geometry": {"type": "Point", "coordinates": [8.23210414499044, 58.3305516466498]}}, {"type": "Feature", "properties": {"VehicleRef": "3360111183", "LineRef": "AKT:Line:237", "DataSource": "AKT", "CurrentDelay": "-PT1H5M12S", "DestinationName": "Farsund"}, "geometry": {"type": "Point", "coordinates": [6.78692699410021, 58.0923778563738]}}, {"type": "Feature", "properties": {"VehicleRef": "3360111182", "LineRef": "AKT:Line:237", "DataSource": "AKT", "CurrentDelay": "PT5M48S", "DestinationName": "Ore - Borhaug"}, "geometry": {"type": "Point", "coordinates": [6.58634989522398, 58.1009985599667]}}, {"type": "Feature", "properties": {"VehicleRef": "3360111181", "LineRef": "AKT:Line:230", "DataSource": "AKT", "CurrentDelay": "PT1M31S", "DestinationName": "Vanse - Farsund"}, "geometry": {"type": "Point", "coordinates": [6.61642869003117, 58.0900987330824]}}, {"type": "Feature", "properties": {"VehicleRef": "3360110520", "LineRef": "AKT:Line:1955", "DataSource": "AKT", "CurrentDelay": "PT4M30S", "DestinationName": "Vierli"}, "geometry": {"type": "Point", "coordinates": [8.96374957635999, 58.7153144460171]}}, {"type": "Feature", "properties": {"VehicleRef": "3360111080", "LineRef": "AKT:Line:241", "DataSource": "AKT", "CurrentDelay": "PT13M4S", "DestinationName": "Eiken - N\u00f8kland"}, "geometry": {"type": "Point", "coordinates": [7.41107837297022, 58.4261925145984]}}, {"type": "Feature", "properties": {"VehicleRef": "3360111160", "LineRef": "AKT:Line:233", "DataSource": "AKT", "CurrentDelay": "PT4M21S", "DestinationName": "Lyngdal"}, "geometry": {"type": "Point", "coordinates": [7.072758609429, 58.1382349133492]}}, {"type": "Feature", "properties": {"VehicleRef": "3360111119", "LineRef": "AKT:Line:233", "DataSource": "AKT", "CurrentDelay": "-PT12M55S", "DestinationName": "\u00c5 skole - Kv\u00e5s"}, "geometry": {"type": "Point", "coordinates": [7.04080981202424, 58.1347473710775]}}, {"type": "Feature", "properties": {"VehicleRef": "3390123113", "LineRef": "AKT:Line:2137", "DataSource": "AKT", "CurrentDelay": "PT5M11S", "DestinationName": "Brattvollsheia"}, "geometry": {"type": "Point", "coordinates": [8.10120421461761, 58.2278206944466]}}, {"type": "Feature", "properties": {"VehicleRef": "3390123119", "LineRef": "AKT:Line:2137", "DataSource": "AKT", "CurrentDelay": "-PT4M38S", "DestinationName": "Solsletta - Drangsholt"}, "geometry": {"type": "Point", "coordinates": [8.16875673830509, 58.265670184046]}}, {"type": "Feature", "properties": {"VehicleRef": "3390123123", "LineRef": "AKT:Line:2137", "DataSource": "AKT", "CurrentDelay": "-PT31S", "DestinationName": "Brattvollsheia"}, "geometry": {"type": "Point", "coordinates": [8.10146061703563, 58.2278198562562]}}, {"type": "Feature", "properties": {"VehicleRef": "3360110285", "LineRef": "AKT:Line:36", "DataSource": "AKT", "CurrentDelay": "PT5M54S", "DestinationName": "Kristiansand"}, "geometry": {"type": "Point", "coordinates": [7.99038003198802, 58.1448328122497]}}, {"type": "Feature", "properties": {"VehicleRef": "3390123160", "LineRef": "AKT:Line:2263", "DataSource": "AKT", "CurrentDelay": "PT1M59S", "DestinationName": "S\u00f8m"}, "geometry": {"type": "Point", "coordinates": [8.06583694182336, 58.1487416289747]}}, {"type": "Feature", "properties": {"VehicleRef": "3360110268", "LineRef": "AKT:Line:146", "DataSource": "AKT", "CurrentDelay": "-PT54S", "DestinationName": "Grimstad"}, "geometry": {"type": "Point", "coordinates": [8.57464126311243, 58.3376041799784]}}, {"type": "Feature", "properties": {"VehicleRef": "3360130034", "LineRef": "AKT:Line:256", "DataSource": "AKT", "CurrentDelay": "PT1M9S", "DestinationName": "Farsund - Vanse"}, "geometry": {"type": "Point", "coordinates": [6.69648508541286, 58.0985623598099]}}, {"type": "Feature", "properties": {"VehicleRef": "3360110261", "LineRef": "AKT:Line:140", "DataSource": "AKT", "CurrentDelay": "PT3M35S", "DestinationName": "Myr\u00e5sen - Homborsund"}, "geometry": {"type": "Point", "coordinates": [8.59793297946453, 58.3461786154658]}}, {"type": "Feature", "properties": {"VehicleRef": "3360110276", "LineRef": "AKT:Line:145", "DataSource": "AKT", "CurrentDelay": "-PT1M15S", "DestinationName": "Grimstad"}, "geometry": {"type": "Point", "coordinates": [8.59238650649786, 58.3391534071416]}}, {"type": "Feature", "properties": {"VehicleRef": "3360111104", "LineRef": "AKT:Line:233", "DataSource": "AKT", "CurrentDelay": "PT8M3S", "DestinationName": "\u00c5 skole - Kv\u00e5s"}, "geometry": {"type": "Point", "coordinates": [7.18459549359977, 58.2462746277452]}}, {"type": "Feature", "properties": {"VehicleRef": "3360111112", "LineRef": "AKT:Line:232", "DataSource": "AKT", "CurrentDelay": "-PT2M18S", "DestinationName": "Berge skole"}, "geometry": {"type": "Point", "coordinates": [6.94396262057126, 58.2174813654274]}}, {"type": "Feature", "properties": {"VehicleRef": "3360130131", "LineRef": "AKT:Line:251", "DataSource": "AKT", "CurrentDelay": "-PT2M48S", "DestinationName": "Flekkefjord"}, "geometry": {"type": "Point", "coordinates": [6.66698925197124, 58.2950464077294]}}, {"type": "Feature", "properties": {"VehicleRef": "3360130145", "LineRef": "AKT:Line:253", "DataSource": "AKT", "CurrentDelay": "PT1M17S", "DestinationName": "Liknes"}, "geometry": {"type": "Point", "coordinates": [6.96489290334284, 58.3165262918919]}}, {"type": "Feature", "properties": {"VehicleRef": "3360130041", "LineRef": "AKT:Line:260", "DataSource": "AKT", "CurrentDelay": "PT1M23S", "DestinationName": "Sira"}, "geometry": {"type": "Point", "coordinates": [6.66661667637527, 58.2947346009314]}}, {"type": "Feature", "properties": {"VehicleRef": "3360130144", "LineRef": "AKT:Line:251", "DataSource": "AKT", "CurrentDelay": "-PT2M25S", "DestinationName": "Feda terminal korr. Flekkefjord"}, "geometry": {"type": "Point", "coordinates": [6.80790555663407, 58.2681506406516]}}, {"type": "Feature", "properties": {"VehicleRef": "3360130142", "LineRef": "AKT:Line:251", "DataSource": "AKT", "CurrentDelay": "PT2M15S", "DestinationName": "Kvinesdal"}, "geometry": {"type": "Point", "coordinates": [6.98623884469271, 58.3254965208471]}}, {"type": "Feature", "properties": {"VehicleRef": "3360130043", "LineRef": "AKT:Line:260", "DataSource": "AKT", "CurrentDelay": "PT2M28S", "DestinationName": "Sira"}, "geometry": {"type": "Point", "coordinates": [6.66532318107784, 58.4241682011634]}}, {"type": "Feature", "properties": {"VehicleRef": "3360120325", "LineRef": "AKT:Line:166", "DataSource": "AKT", "CurrentDelay": "-PT8M", "DestinationName": "Gjerstad"}, "geometry": {"type": "Point", "coordinates": [8.95014625042677, 58.8847441412508]}}, {"type": "Feature", "properties": {"VehicleRef": "3360110200", "LineRef": "AKT:Line:1910", "DataSource": "AKT", "CurrentDelay": "-PT3S", "DestinationName": "Arendal sentrum"}, "geometry": {"type": "Point", "coordinates": [8.76552837900817, 58.4602020028979]}}, {"type": "Feature", "properties": {"VehicleRef": "3360120331", "LineRef": "AKT:Line:165", "DataSource": "AKT", "CurrentDelay": "-PT2M19S", "DestinationName": "Veg\u00e5rshei"}, "geometry": {"type": "Point", "coordinates": [8.86574048548937, 58.7532598245889]}}, {"type": "Feature", "properties": {"VehicleRef": "3360110065", "LineRef": "AKT:Line:170", "DataSource": "AKT", "CurrentDelay": "PT16S", "DestinationName": "Kun avstigning"}, "geometry": {"type": "Point", "coordinates": [7.79009529389441, 58.5790922585875]}}, {"type": "Feature", "properties": {"VehicleRef": "3360130172", "LineRef": "AKT:Line:252", "DataSource": "AKT", "CurrentDelay": "PT4M3S", "DestinationName": "Knaben"}, "geometry": {"type": "Point", "coordinates": [6.94199815392494, 58.654467612505]}}, {"type": "Feature", "properties": {"VehicleRef": "3360110040", "LineRef": "AKT:Line:173", "DataSource": "AKT", "CurrentDelay": "-PT3M5S", "DestinationName": "Iveland - korr. Engesland"}, "geometry": {"type": "Point", "coordinates": [7.91214963421226, 58.463138686493]}}, {"type": "Feature", "properties": {"VehicleRef": "3360130141", "LineRef": "AKT:Line:253", "DataSource": "AKT", "CurrentDelay": "-PT50S", "DestinationName": "Haddeland"}, "geometry": {"type": "Point", "coordinates": [7.02134711667895, 58.4690645243973]}}, {"type": "Feature", "properties": {"VehicleRef": "3360130147", "LineRef": "AKT:Line:253", "DataSource": "AKT", "CurrentDelay": "-PT2M17S", "DestinationName": "Fjotland - Mygland"}, "geometry": {"type": "Point", "coordinates": [7.0116395317018, 58.5073167644441]}}, {"type": "Feature", "properties": {"VehicleRef": "3360110254", "LineRef": "AKT:Line:1910", "DataSource": "AKT", "CurrentDelay": "-PT3M22S", "DestinationName": "Grimstad"}, "geometry": {"type": "Point", "coordinates": [8.57386945746839, 58.3347880281508]}}, {"type": "Feature", "properties": {"VehicleRef": "3360110427", "LineRef": "AKT:Line:133", "DataSource": "AKT", "CurrentDelay": "PT1M58S", "DestinationName": "Birkeland"}, "geometry": {"type": "Point", "coordinates": [8.23174732737243, 58.3307436760515]}}, {"type": "Feature", "properties": {"VehicleRef": "3360110255", "LineRef": "AKT:Line:1910", "DataSource": "AKT", "CurrentDelay": "PT1M31S", "DestinationName": "Arendal sentrum"}, "geometry": {"type": "Point", "coordinates": [8.76573851332068, 58.4599120728672]}}, {"type": "Feature", "properties": {"VehicleRef": "3360120303", "LineRef": "AKT:Line:162", "DataSource": "AKT", "CurrentDelay": "-PT4M35S", "DestinationName": "Krabbesund"}, "geometry": {"type": "Point", "coordinates": [9.20769824646413, 58.6787156201899]}}, {"type": "Feature", "properties": {"VehicleRef": "3360110262", "LineRef": "AKT:Line:1910", "DataSource": "AKT", "CurrentDelay": "PT9M22S", "DestinationName": "Eydehavn - korr. Staub\u00f8"}, "geometry": {"type": "Point", "coordinates": [8.86605329811573, 58.4997985325754]}}, {"type": "Feature", "properties": {"VehicleRef": "3360111184", "LineRef": "AKT:Line:230", "DataSource": "AKT", "CurrentDelay": "-PT19M58S", "DestinationName": "Lyngdal korr. Kr.sand"}, "geometry": {"type": "Point", "coordinates": [6.78660538047552, 58.0923185963184]}}, {"type": "Feature", "properties": {"VehicleRef": "3360110116", "LineRef": "AKT:Line:175", "DataSource": "AKT", "CurrentDelay": "-PT3S", "DestinationName": "Evje - korr. \u00c5mli / Hovden"}, "geometry": {"type": "Point", "coordinates": [7.80423070304096, 58.5863162856549]}}, {"type": "Feature", "properties": {"VehicleRef": "3360110271", "LineRef": "AKT:Line:1910", "DataSource": "AKT", "CurrentDelay": "-PT19S", "DestinationName": "Arendal sentrum"}, "geometry": {"type": "Point", "coordinates": [8.76572879031301, 58.459869325161]}}, {"type": "Feature", "properties": {"VehicleRef": "3360110279", "LineRef": "AKT:Line:1910", "DataSource": "AKT", "CurrentDelay": "PT46S", "DestinationName": "Arendal sentrum"}, "geometry": {"type": "Point", "coordinates": [8.76463394612074, 58.4601111430675]}}, {"type": "Feature", "properties": {"VehicleRef": "3360110277", "LineRef": "AKT:Line:1910", "DataSource": "AKT", "CurrentDelay": "-PT1M24S", "DestinationName": "Arendal sentrum"}, "geometry": {"type": "Point", "coordinates": [8.76559090800583, 58.4600336942822]}}, {"type": "Feature", "properties": {"VehicleRef": "3360111157", "LineRef": "AKT:Line:238", "DataSource": "AKT", "CurrentDelay": "PT2M15S", "DestinationName": "Kj\u00f8rrefjord - Farsund"}, "geometry": {"type": "Point", "coordinates": [6.7873144056648, 58.0926107056439]}}, {"type": "Feature", "properties": {"VehicleRef": "3360110283", "LineRef": "AKT:Line:1910", "DataSource": "AKT", "CurrentDelay": "PT1S", "DestinationName": "Heldal"}, "geometry": {"type": "Point", "coordinates": [8.6047488078475, 58.6067181732506]}}, {"type": "Feature", "properties": {"VehicleRef": "3360110281", "LineRef": "AKT:Line:1910", "DataSource": "AKT", "CurrentDelay": "-PT2M37S", "DestinationName": "Grimstad"}, "geometry": {"type": "Point", "coordinates": [8.57009366154671, 58.3406432066113]}}, {"type": "Feature", "properties": {"VehicleRef": "3360110289", "LineRef": "AKT:Line:1910", "DataSource": "AKT", "CurrentDelay": "-PT1M2S", "DestinationName": "Arendal sentrum"}, "geometry": {"type": "Point", "coordinates": [8.76570289023221, 58.4598642960191]}}, {"type": "Feature", "properties": {"VehicleRef": "3360120306", "LineRef": "AKT:Line:166", "DataSource": "AKT", "CurrentDelay": "PT6M9S", "DestinationName": "Gjerstad"}, "geometry": {"type": "Point", "coordinates": [9.07470619305968, 58.82309474051]}}, {"type": "Feature", "properties": {"VehicleRef": "3360120319", "LineRef": "AKT:Line:166", "DataSource": "AKT", "CurrentDelay": "PT7M4S", "DestinationName": "Gjerstad"}, "geometry": {"type": "Point", "coordinates": [8.98786045610905, 58.8926898501813]}}, {"type": "Feature", "properties": {"VehicleRef": "3360120316", "LineRef": "AKT:Line:166", "DataSource": "AKT", "CurrentDelay": "PT2M49S", "DestinationName": "Gjerstad"}, "geometry": {"type": "Point", "coordinates": [8.98919401690364, 58.8925837352872]}}, {"type": "Feature", "properties": {"VehicleRef": "3360130103", "LineRef": "AKT:Line:251", "DataSource": "AKT", "CurrentDelay": "-PT27S", "DestinationName": "Feda terminal korr. Flekkefjord"}, "geometry": {"type": "Point", "coordinates": [6.80788191966712, 58.2680933922529]}}, {"type": "Feature", "properties": {"VehicleRef": "3360130102", "LineRef": "AKT:Line:250", "DataSource": "AKT", "CurrentDelay": "-PT1S", "DestinationName": "Lyngdal"}, "geometry": {"type": "Point", "coordinates": [6.66695664636791, 58.2950007263571]}}, {"type": "Feature", "properties": {"VehicleRef": "3360110038", "LineRef": "AKT:Line:178", "DataSource": "AKT", "CurrentDelay": "-PT1M7S", "DestinationName": "\u00c5seral"}, "geometry": {"type": "Point", "coordinates": [7.4154207855463, 58.6178566329181]}}, {"type": "Feature", "properties": {"VehicleRef": "3360110199", "LineRef": "AKT:Line:162", "DataSource": "AKT", "CurrentDelay": "-PT2M49S", "DestinationName": "Krabbesund"}, "geometry": {"type": "Point", "coordinates": [9.20816595666111, 58.6788166221231]}}, {"type": "Feature", "properties": {"VehicleRef": "3360111109", "LineRef": "AKT:Line:241", "DataSource": "AKT", "CurrentDelay": "PT4M24S", "DestinationName": "Eiken skule"}, "geometry": {"type": "Point", "coordinates": [7.23082789219916, 58.4661278408021]}}, {"type": "Feature", "properties": {"VehicleRef": "3360111108", "LineRef": "AKT:Line:241", "DataSource": "AKT", "CurrentDelay": "PT18M22S", "DestinationName": "Kv\u00e5le"}, "geometry": {"type": "Point", "coordinates": [7.33878160826862, 58.4584724809974]}}, {"type": "Feature", "properties": {"VehicleRef": "3390123144", "LineRef": "AKT:Line:2144", "DataSource": "AKT", "CurrentDelay": "PT1M30S", "DestinationName": "Trysnes / \u00c5lo"}, "geometry": {"type": "Point", "coordinates": [7.71199515089393, 58.0560989677906]}}, {"type": "Feature", "properties": {"VehicleRef": "3360110061", "LineRef": "AKT:Line:178", "DataSource": "AKT", "CurrentDelay": "PT2M46S", "DestinationName": "Evje"}, "geometry": {"type": "Point", "coordinates": [7.80119704082608, 58.58447981067]}}, {"type": "Feature", "properties": {"VehicleRef": "3360110522", "LineRef": "AKT:Line:1956", "DataSource": "AKT", "CurrentDelay": "PT6M44S", "DestinationName": "Flaten"}, "geometry": {"type": "Point", "coordinates": [8.69997736997902, 58.6873096693307]}}, {"type": "Feature", "properties": {"VehicleRef": "3390123138", "LineRef": "AKT:Line:2144", "DataSource": "AKT", "CurrentDelay": "PT2M20S", "DestinationName": "\u00c5lo"}, "geometry": {"type": "Point", "coordinates": [7.65066015534103, 58.044405290857]}}, {"type": "Feature", "properties": {"VehicleRef": "3390123077", "LineRef": "AKT:Line:5003", "DataSource": "AKT", "CurrentDelay": "PT3M32S", "DestinationName": "S\u00f8m"}, "geometry": {"type": "Point", "coordinates": [8.05701867677271, 58.1559583637863]}}, {"type": "Feature", "properties": {"VehicleRef": "3390123072", "LineRef": "AKT:Line:5003", "DataSource": "AKT", "CurrentDelay": "PT2M52S", "DestinationName": "S\u00f8m"}, "geometry": {"type": "Point", "coordinates": [8.05655071511865, 58.1548741646111]}}, {"type": "Feature", "properties": {"VehicleRef": "3390123074", "LineRef": "AKT:Line:5003", "DataSource": "AKT", "CurrentDelay": "-PT17S", "DestinationName": "S\u00f8m"}, "geometry": {"type": "Point", "coordinates": [8.05689060129225, 58.1559540890157]}}, {"type": "Feature", "properties": {"VehicleRef": "3360111106", "LineRef": "AKT:Line:243", "DataSource": "AKT", "CurrentDelay": "PT6M9S", "DestinationName": "Snartemo"}, "geometry": {"type": "Point", "coordinates": [7.21118037588894, 58.3319981116802]}}, {"type": "Feature", "properties": {"VehicleRef": "3360130171", "LineRef": "AKT:Line:260", "DataSource": "AKT", "CurrentDelay": "-PT48M23S", "DestinationName": "Sira"}, "geometry": {"type": "Point", "coordinates": [6.66696435771883, 58.2950329128653]}}, {"type": "Feature", "properties": {"VehicleRef": "3390123064", "LineRef": "AKT:Line:5002", "DataSource": "AKT", "CurrentDelay": "PT23M47S", "DestinationName": "Kvadraturen-H\u00e5nes"}, "geometry": {"type": "Point", "coordinates": [8.09632980264723, 58.1802877597511]}}, {"type": "Feature", "properties": {"VehicleRef": "3360110114", "LineRef": "AKT:Line:170", "DataSource": "AKT", "CurrentDelay": "PT2M39S", "DestinationName": "Evje"}, "geometry": {"type": "Point", "coordinates": [7.82217535190284, 58.5924807563424]}}, {"type": "Feature", "properties": {"VehicleRef": "3390123041", "LineRef": "AKT:Line:1015", "DataSource": "AKT", "CurrentDelay": "PT7M", "DestinationName": "Tinnheia"}, "geometry": {"type": "Point", "coordinates": [7.96615473926067, 58.1391558330506]}}, {"type": "Feature", "properties": {"VehicleRef": "3390123071", "LineRef": "AKT:Line:1012", "DataSource": "AKT", "CurrentDelay": "PT59S", "DestinationName": "Kjos haveby"}, "geometry": {"type": "Point", "coordinates": [7.98315483145416, 58.1454510614276]}}, {"type": "Feature", "properties": {"VehicleRef": "3390123049", "LineRef": "AKT:Line:1012", "DataSource": "AKT", "CurrentDelay": "PT4M15S", "DestinationName": "Kjos haveby"}, "geometry": {"type": "Point", "coordinates": [8.02975066937506, 58.2036827411503]}}, {"type": "Feature", "properties": {"VehicleRef": "3390123056", "LineRef": "AKT:Line:1012", "DataSource": "AKT", "CurrentDelay": "PT13M46S", "DestinationName": "Kjos haveby"}, "geometry": {"type": "Point", "coordinates": [7.95688309706748, 58.1247443240136]}}, {"type": "Feature", "properties": {"VehicleRef": "3390123057", "LineRef": "AKT:Line:1012", "DataSource": "AKT", "CurrentDelay": "PT10M39S", "DestinationName": "Kjos haveby"}, "geometry": {"type": "Point", "coordinates": [7.95694830827415, 58.1247799471021]}}, {"type": "Feature", "properties": {"VehicleRef": "3390123033", "LineRef": "AKT:Line:1015", "DataSource": "AKT", "CurrentDelay": "PT9S", "DestinationName": "Tinnheia"}, "geometry": {"type": "Point", "coordinates": [8.00885383039713, 58.1627404969186]}}, {"type": "Feature", "properties": {"VehicleRef": "3360110002", "LineRef": "AKT:Line:103", "DataSource": "AKT", "CurrentDelay": "PT5M8S", "DestinationName": "Trom\u00f8y Vest"}, "geometry": {"type": "Point", "coordinates": [8.80059650167823, 58.4380970802158]}}, {"type": "Feature", "properties": {"VehicleRef": "3390123037", "LineRef": "AKT:Line:1015", "DataSource": "AKT", "CurrentDelay": "-PT22M28S", "DestinationName": "Tinnheia"}, "geometry": {"type": "Point", "coordinates": [7.9451375361532, 58.1697765178978]}}, {"type": "Feature", "properties": {"VehicleRef": "3390123067", "LineRef": "AKT:Line:1012", "DataSource": "AKT", "CurrentDelay": "PT17M15S", "DestinationName": "Kjos haveby"}, "geometry": {"type": "Point", "coordinates": [7.95646090060472, 58.1246983073652]}}, {"type": "Feature", "properties": {"VehicleRef": "3390123007", "LineRef": "AKT:Line:1015", "DataSource": "AKT", "CurrentDelay": "PT9M22S", "DestinationName": "Tinnheia"}, "geometry": {"type": "Point", "coordinates": [8.00946042872965, 58.1624414306134]}}, {"type": "Feature", "properties": {"VehicleRef": "3390123005", "LineRef": "AKT:Line:1013", "DataSource": "AKT", "CurrentDelay": "-PT17S", "DestinationName": "Grimsmyra"}, "geometry": {"type": "Point", "coordinates": [7.99425079487264, 58.1444488372654]}}, {"type": "Feature", "properties": {"VehicleRef": "3390123018", "LineRef": "AKT:Line:1012", "DataSource": "AKT", "CurrentDelay": "-PT15M51S", "DestinationName": "Kjos haveby"}, "geometry": {"type": "Point", "coordinates": [7.95445871539414, 58.1243058666587]}}, {"type": "Feature", "properties": {"VehicleRef": "3390123021", "LineRef": "AKT:Line:1012", "DataSource": "AKT", "CurrentDelay": "PT14M33S", "DestinationName": "Kjos haveby"}, "geometry": {"type": "Point", "coordinates": [7.95813241973519, 58.1248808652163]}}, {"type": "Feature", "properties": {"VehicleRef": "3390123020", "LineRef": "AKT:Line:1012", "DataSource": "AKT", "CurrentDelay": "PT6M37S", "DestinationName": "Kjos haveby"}, "geometry": {"type": "Point", "coordinates": [7.95705039985478, 58.1247731577605]}}, {"type": "Feature", "properties": {"VehicleRef": "3390123027", "LineRef": "AKT:Line:1012", "DataSource": "AKT", "CurrentDelay": "PT4M36S", "DestinationName": "Kjos haveby"}, "geometry": {"type": "Point", "coordinates": [7.95705995522439, 58.1247459165752]}}, {"type": "Feature", "properties": {"VehicleRef": "3360110139", "LineRef": "AKT:Line:1980", "DataSource": "AKT", "CurrentDelay": "-PT5M59S", "DestinationName": "Stinemyr"}, "geometry": {"type": "Point", "coordinates": [7.54514783620834, 58.5751331504434]}}, {"type": "Feature", "properties": {"VehicleRef": "3360130902", "LineRef": "AKT:Line:271", "DataSource": "AKT", "CurrentDelay": "PT4M28S", "DestinationName": "Tonstad"}, "geometry": {"type": "Point", "coordinates": [6.71745493076742, 58.6645615193993]}}, {"type": "Feature", "properties": {"VehicleRef": "3360130191", "LineRef": "AKT:Line:260", "DataSource": "AKT", "CurrentDelay": "-PT2M26S", "DestinationName": "Flekkefjord"}, "geometry": {"type": "Point", "coordinates": [6.66696192696691, 58.2948964554816]}}, {"type": "Feature", "properties": {"VehicleRef": "3360130901", "LineRef": "AKT:Line:270", "DataSource": "AKT", "CurrentDelay": "-PT3M22S", "DestinationName": "Tonstad - Sirdal"}, "geometry": {"type": "Point", "coordinates": [6.70688727870584, 58.6661330424249]}}, {"type": "Feature", "properties": {"VehicleRef": "3390123002", "LineRef": "AKT:Line:1010", "DataSource": "AKT", "CurrentDelay": "-PT1M44S", "DestinationName": "Kvadraturen"}, "geometry": {"type": "Point", "coordinates": [7.98246022313833, 58.1638034898788]}}, {"type": "Feature", "properties": {"VehicleRef": "3390123004", "LineRef": "AKT:Line:1010", "DataSource": "AKT", "CurrentDelay": "PT1M42S", "DestinationName": "Kvadraturen"}, "geometry": {"type": "Point", "coordinates": [7.98231521621346, 58.1638049986213]}}, {"type": "Feature", "properties": {"VehicleRef": "3390123001", "LineRef": "AKT:Line:1010", "DataSource": "AKT", "CurrentDelay": "PT44S", "DestinationName": "Kvadraturen"}, "geometry": {"type": "Point", "coordinates": [7.98778792843223, 58.159009963274]}}, {"type": "Feature", "properties": {"VehicleRef": "3360110155", "LineRef": "AKT:Line:1980", "DataSource": "AKT", "CurrentDelay": "-PT3M26S", "DestinationName": "Lognavatn"}, "geometry": {"type": "Point", "coordinates": [7.51276100054383, 58.7530132289976]}}, {"type": "Feature", "properties": {"VehicleRef": "3360110153", "LineRef": "AKT:Line:1980", "DataSource": "AKT", "CurrentDelay": "PT6M37S", "DestinationName": "Lognavatn"}, "geometry": {"type": "Point", "coordinates": [7.48856873251498, 58.7919636815786]}}, {"type": "Feature", "properties": {"VehicleRef": "3360110003", "LineRef": "AKT:Line:101", "DataSource": "AKT", "CurrentDelay": "-PT23S", "DestinationName": "Arendal sentrum"}, "geometry": {"type": "Point", "coordinates": [8.7642286811024, 58.4596178680658]}}, {"type": "Feature", "properties": {"VehicleRef": "3360110001", "LineRef": "AKT:Line:101", "DataSource": "AKT", "CurrentDelay": "-PT1M7S", "DestinationName": "Arendal"}, "geometry": {"type": "Point", "coordinates": [8.764663701877, 58.4601426590234]}}, {"type": "Feature", "properties": {"VehicleRef": "3390123158", "LineRef": "AKT:Line:5003", "DataSource": "AKT", "CurrentDelay": "PT4M52S", "DestinationName": "S\u00f8m"}, "geometry": {"type": "Point", "coordinates": [8.05837277323008, 58.1566461827606]}}, {"type": "Feature", "properties": {"VehicleRef": "3390123059", "LineRef": "AKT:Line:5002", "DataSource": "AKT", "CurrentDelay": "PT5M10S", "DestinationName": "Kvadraturen-H\u00e5nes"}, "geometry": {"type": "Point", "coordinates": [8.09833366423845, 58.1787365209311]}}, {"type": "Feature", "properties": {"VehicleRef": "3390123052", "LineRef": "AKT:Line:5002", "DataSource": "AKT", "CurrentDelay": "PT8M37S", "DestinationName": "Kvadraturen-H\u00e5nes"}, "geometry": {"type": "Point", "coordinates": [8.09826820157468, 58.178831236437]}}, {"type": "Feature", "properties": {"VehicleRef": "3390123044", "LineRef": "AKT:Line:5003", "DataSource": "AKT", "CurrentDelay": "PT30M28S", "DestinationName": "S\u00f8m"}, "geometry": {"type": "Point", "coordinates": [8.05834880098701, 58.1566694006324]}}, {"type": "Feature", "properties": {"VehicleRef": "3390121766", "LineRef": "AKT:Line:2107", "DataSource": "AKT", "CurrentDelay": "-PT6M30S", "DestinationName": "Eikelandsdalen"}, "geometry": {"type": "Point", "coordinates": [8.04551753215492, 58.301583873108]}}, {"type": "Feature", "properties": {"VehicleRef": "3390123047", "LineRef": "AKT:Line:5002", "DataSource": "AKT", "CurrentDelay": "PT5M31S", "DestinationName": "Kvadraturen-H\u00e5nes"}, "geometry": {"type": "Point", "coordinates": [8.09628512710333, 58.1804570741951]}}, {"type": "Feature", "properties": {"VehicleRef": "3360130053", "LineRef": "AKT:Line:260", "DataSource": "AKT", "CurrentDelay": "-PT2M48S", "DestinationName": "Flekkefjord"}, "geometry": {"type": "Point", "coordinates": [6.66697349399328, 58.2948888279498]}}, {"type": "Feature", "properties": {"VehicleRef": "3390123023", "LineRef": "AKT:Line:5003", "DataSource": "AKT", "CurrentDelay": "PT36S", "DestinationName": "S\u00f8m"}, "geometry": {"type": "Point", "coordinates": [8.05656504817307, 58.1557224132121]}}, {"type": "Feature", "properties": {"VehicleRef": "3390123032", "LineRef": "AKT:Line:5002", "DataSource": "AKT", "CurrentDelay": "PT5M4S", "DestinationName": "Kvadraturen-H\u00e5nes"}, "geometry": {"type": "Point", "coordinates": [8.0975229665637, 58.1793908122927]}}, {"type": "Feature", "properties": {"VehicleRef": "3390123022", "LineRef": "AKT:Line:5002", "DataSource": "AKT", "CurrentDelay": "PT7M56S", "DestinationName": "Kvadraturen-H\u00e5nes"}, "geometry": {"type": "Point", "coordinates": [8.09826174750924, 58.1788403727114]}}, {"type": "Feature", "properties": {"VehicleRef": "3360130193", "LineRef": "AKT:Line:261", "DataSource": "AKT", "CurrentDelay": "PT1M59S", "DestinationName": "Hidra"}, "geometry": {"type": "Point", "coordinates": [6.5814096853137, 58.2128578238189]}}, {"type": "Feature", "properties": {"VehicleRef": "3360130192", "LineRef": "AKT:Line:261", "DataSource": "AKT", "CurrentDelay": "PT3M43S", "DestinationName": "Kirkehamn - Omland"}, "geometry": {"type": "Point", "coordinates": [6.55931347981095, 58.2351059932262]}}, {"type": "Feature", "properties": {"VehicleRef": "3360110033", "LineRef": "AKT:Line:1922", "DataSource": "AKT", "CurrentDelay": "-PT2M30S", "DestinationName": "Sagene - Voie"}, "geometry": {"type": "Point", "coordinates": [8.81766691803932, 58.5619272105396]}}, {"type": "Feature", "properties": {"VehicleRef": "3360110017", "LineRef": "AKT:Line:1926", "DataSource": "AKT", "CurrentDelay": "PT20M45S", "DestinationName": "Risdal"}, "geometry": {"type": "Point", "coordinates": [8.21489425376058, 58.639829037711]}}, {"type": "Feature", "properties": {"VehicleRef": "3360110104", "LineRef": "AKT:Line:170", "DataSource": "AKT", "CurrentDelay": "PT2M18S", "DestinationName": "Evje"}, "geometry": {"type": "Point", "coordinates": [7.92585630901158, 58.2041971385479]}}, {"type": "Feature", "properties": {"VehicleRef": "3360110105", "LineRef": "AKT:Line:170", "DataSource": "AKT", "CurrentDelay": "-PT1M44S", "DestinationName": "Evje - Hovden"}, "geometry": {"type": "Point", "coordinates": [7.35767927952111, 59.5576462615281]}}, {"type": "Feature", "properties": {"VehicleRef": "3360110103", "LineRef": "AKT:Line:170", "DataSource": "AKT", "CurrentDelay": "PT3M19S", "DestinationName": "Evje"}, "geometry": {"type": "Point", "coordinates": [7.82218113541603, 58.5924670938402]}}, {"type": "Feature", "properties": {"VehicleRef": "3360110429", "LineRef": "AKT:Line:36", "DataSource": "AKT", "CurrentDelay": "PT20S", "DestinationName": "Kristiansand"}, "geometry": {"type": "Point", "coordinates": [8.10949467122555, 58.2228594459593]}}, {"type": "Feature", "properties": {"VehicleRef": "3360110428", "LineRef": "AKT:Line:133", "DataSource": "AKT", "CurrentDelay": "-PT15M10S", "DestinationName": "Lillesand - korr. Arendal"}, "geometry": {"type": "Point", "coordinates": [8.23215116746724, 58.329613795504]}}, {"type": "Feature", "properties": {"VehicleRef": "3360110110", "LineRef": "AKT:Line:170", "DataSource": "AKT", "CurrentDelay": "PT2M58S", "DestinationName": "Evje"}, "geometry": {"type": "Point", "coordinates": [7.82215473242104, 58.5924541018903]}}, {"type": "Feature", "properties": {"VehicleRef": "3360130132", "LineRef": "AKT:Line:260", "DataSource": "AKT", "CurrentDelay": "-PT2M27S", "DestinationName": "Sira - Flekkefjord"}, "geometry": {"type": "Point", "coordinates": [6.66658842936158, 58.2946270611137]}}, {"type": "Feature", "properties": {"VehicleRef": "3360110115", "LineRef": "AKT:Line:170", "DataSource": "AKT", "CurrentDelay": "PT9M24S", "DestinationName": "Evje"}, "geometry": {"type": "Point", "coordinates": [7.82220485620201, 58.5923214163631]}}, {"type": "Feature", "properties": {"VehicleRef": "3360110111", "LineRef": "AKT:Line:170", "DataSource": "AKT", "CurrentDelay": "PT11M33S", "DestinationName": "Evje"}, "geometry": {"type": "Point", "coordinates": [7.82218046486378, 58.5923399403691]}}, {"type": "Feature", "properties": {"VehicleRef": "3360110071", "LineRef": "AKT:Line:1925", "DataSource": "AKT", "CurrentDelay": "PT4M59S", "DestinationName": "Lyngrott"}, "geometry": {"type": "Point", "coordinates": [8.69791718199849, 58.534233989194]}}, {"type": "Feature", "properties": {"VehicleRef": "3360111302", "LineRef": "AKT:Line:211", "DataSource": "AKT", "CurrentDelay": "PT50S", "DestinationName": "M\u00f8ll - Valand"}, "geometry": {"type": "Point", "coordinates": [7.5106939394027, 58.0504369921982]}}, {"type": "Feature", "properties": {"VehicleRef": "3360111115", "LineRef": "AKT:Line:238", "DataSource": "AKT", "CurrentDelay": "PT3M1S", "DestinationName": "Lyngdal - Rom"}, "geometry": {"type": "Point", "coordinates": [7.10218688473105, 58.1560226529837]}}, {"type": "Feature", "properties": {"VehicleRef": "3390123143", "LineRef": "AKT:Line:2137", "DataSource": "AKT", "CurrentDelay": "PT2M2S", "DestinationName": "Solsletta - D\u00f8nnestad"}, "geometry": {"type": "Point", "coordinates": [8.11725748702884, 58.2176138833165]}}, {"type": "Feature", "properties": {"VehicleRef": "3390123124", "LineRef": "AKT:Line:2137", "DataSource": "AKT", "CurrentDelay": "-PT2M18S", "DestinationName": "Solsletta - Drangsholt"}, "geometry": {"type": "Point", "coordinates": [8.16925412043929, 58.2657099980861]}}, {"type": "Feature", "properties": {"VehicleRef": "3360110256", "LineRef": "AKT:Line:145", "DataSource": "AKT", "CurrentDelay": "PT2M15S", "DestinationName": "Fj\u00e6re"}, "geometry": {"type": "Point", "coordinates": [8.62137439660728, 58.36969261989]}}, {"type": "Feature", "properties": {"VehicleRef": "3360120322", "LineRef": "AKT:Line:163", "DataSource": "AKT", "CurrentDelay": "-PT14S", "DestinationName": "Ris\u00f8r"}, "geometry": {"type": "Point", "coordinates": [9.23335223458707, 58.7205175962299]}}, {"type": "Feature", "properties": {"VehicleRef": "3360110221", "LineRef": "AKT:Line:1910", "DataSource": "AKT", "CurrentDelay": "-PT37S", "DestinationName": "Arendal sentrum"}, "geometry": {"type": "Point", "coordinates": [8.7641729414463, 58.4595487173647]}}, {"type": "Feature", "properties": {"VehicleRef": "3360110229", "LineRef": "AKT:Line:1910", "DataSource": "AKT", "CurrentDelay": "-PT8M18S", "DestinationName": "Arendal sentrum"}, "geometry": {"type": "Point", "coordinates": [8.76423479989171, 58.4844242781401]}}, {"type": "Feature", "properties": {"VehicleRef": "3360110227", "LineRef": "AKT:Line:1910", "DataSource": "AKT", "CurrentDelay": "PT40S", "DestinationName": "Arendal sentrum"}, "geometry": {"type": "Point", "coordinates": [8.7655133754015, 58.4604131430387]}}, {"type": "Feature", "properties": {"VehicleRef": "3360110113", "LineRef": "AKT:Line:1926", "DataSource": "AKT", "CurrentDelay": "PT2M59S", "DestinationName": "Frolands verk"}, "geometry": {"type": "Point", "coordinates": [8.57943177223206, 58.500756835565]}}, {"type": "Feature", "properties": {"VehicleRef": "3360120329", "LineRef": "AKT:Line:163", "DataSource": "AKT", "CurrentDelay": "-PT1M18S", "DestinationName": "Bybuss Krana"}, "geometry": {"type": "Point", "coordinates": [9.23334770835936, 58.7204565759748]}}, {"type": "Feature", "properties": {"VehicleRef": "3360130101", "LineRef": "AKT:Line:250", "DataSource": "AKT", "CurrentDelay": "PT2M27S", "DestinationName": "Flekkefjord korr. Kvinesdal"}, "geometry": {"type": "Point", "coordinates": [6.66696469299495, 58.2949979603291]}}, {"type": "Feature", "properties": {"VehicleRef": "3390123129", "LineRef": "AKT:Line:2144", "DataSource": "AKT", "CurrentDelay": "PT13M18S", "DestinationName": "Trysnes / \u00c5lo"}, "geometry": {"type": "Point", "coordinates": [7.71205767989159, 58.05619770661]}}, {"type": "Feature", "properties": {"VehicleRef": "3360111126", "LineRef": "AKT:Line:243", "DataSource": "AKT", "CurrentDelay": "PT4M44S", "DestinationName": "Snartemo"}, "geometry": {"type": "Point", "coordinates": [7.21144541166723, 58.3452049735934]}}]}